[{"City":"Louisville","DBTZ":"C","Name":"Louisville International Standiford Field","Country":"US","IATA/FAA":"SDF","Longitude":null,"Airport ID":"KSDF","Latitude":null,"Timezone":827,"DST":-8,"destinations":[6961,481,4271]},
{"City":"Blubber Bay","DBTZ":"E","Name":"Blubber Bay Seaplane Base","Country":"CA","IATA/FAA":"XBB","Longitude":null,"Airport ID":null,"Latitude":null,"Timezone":289,"DST":0,"destinations":[3476]},
{"City":"Derim","DBTZ":"C","Name":"Derim Airport","Country":"PG","IATA/FAA":"DER","Longitude":null,"Airport ID":"AYDE","Latitude":null,"Timezone":670,"DST":-3,"destinations":[2150,456,6700]},
{"City":null,"DBTZ":"C","Name":"Khark Island Airport","Country":"IR","IATA/FAA":"KHK","Longitude":null,"Airport ID":"OIBQ","Latitude":null,"Timezone":597,"DST":-5,"destinations":[1372,312,6038]},
{"City":"Ciudad Juárez","DBTZ":"B","Name":"Abraham González International Airport","Country":"MX","IATA/FAA":"CJS","Longitude":null,"Airport ID":"MMCS","Latitude":null,"Timezone":389,"DST":-2,"destinations":[1263,1069]},
{"City":"Tarabo","DBTZ":"E","Name":"Tarabo Airport","Country":"PG","IATA/FAA":"TBQ","Longitude":null,"Airport ID":"AYTR","Latitude":null,"Timezone":924,"DST":-1,"destinations":[9649,1095]},
{"City":"São Sepé","DBTZ":"E","Name":"São Sepé Airport","Country":"BR","IATA/FAA":"0","Longitude":null,"Airport ID":"SSEP","Latitude":null,"Timezone":997,"DST":7,"destinations":[5569,5076]},
{"City":"La Verne","DBTZ":"E","Name":"Brackett Field","Country":"US","IATA/FAA":"POC","Longitude":null,"Airport ID":"KPOC","Latitude":null,"Timezone":542,"DST":10,"destinations":[3435,3159]},
{"City":"Akron","DBTZ":"A","Name":"Akron Fulton International Airport","Country":"US","IATA/FAA":"AKC","Longitude":null,"Airport ID":"KAKR","Latitude":null,"Timezone":48,"DST":-8,"destinations":[7805]},
{"City":"Baucau","DBTZ":"A","Name":"Cakung Airport","Country":"TL","IATA/FAA":"BCH","Longitude":null,"Airport ID":"WPEC","Latitude":null,"Timezone":432,"DST":5,"destinations":[7045,715,5546]},
{"City":"Sullivan Bay","DBTZ":"A","Name":"Sullivan Bay Seaplane Base","Country":"CA","IATA/FAA":"YTG","Longitude":null,"Airport ID":"CAV5","Latitude":null,"Timezone":129,"DST":-11,"destinations":[1006]},
{"City":"Abariringa","DBTZ":"B","Name":"Canton Island Airport","Country":"KI","IATA/FAA":"CIS","Longitude":null,"Airport ID":"PCIS","Latitude":null,"Timezone":764,"DST":-3,"destinations":[3751,5313,8389]},
{"City":"Truth Or Consequences","DBTZ":"B","Name":"Truth Or Consequences Municipal Airport","Country":"US","IATA/FAA":"TCS","Longitude":null,"Airport ID":"KTCS","Latitude":null,"Timezone":728,"DST":-3,"destinations":[475,3107]},
{"City":"Adıyaman","DBTZ":"B","Name":"Adıyaman Airport","Country":"TR","IATA/FAA":"ADF","Longitude":null,"Airport ID":"LTCP","Latitude":null,"Timezone":324,"DST":7,"destinations":[1176]},
{"City":null,"DBTZ":"D","Name":"Wittenoom Airport","Country":"AU","IATA/FAA":"WIT","Longitude":null,"Airport ID":"YWIT","Latitude":null,"Timezone":643,"DST":5,"destinations":[1494,744]},
{"City":"York","DBTZ":"D","Name":"York Airport","Country":"US","IATA/FAA":"THV","Longitude":null,"Airport ID":"KTHV","Latitude":null,"Timezone":339,"DST":6,"destinations":[4665,1782]},
{"City":"Dikson","DBTZ":"C","Name":"Dikson Airport","Country":"RU","IATA/FAA":"DKS","Longitude":null,"Airport ID":"UODD","Latitude":null,"Timezone":558,"DST":1,"destinations":[6949,1546]},
{"City":"Georgetown","DBTZ":"A","Name":"Cheddi Jagan International Airport","Country":"GY","IATA/FAA":"GEO","Longitude":null,"Airport ID":"SYCJ","Latitude":null,"Timezone":209,"DST":0,"destinations":[9282,7558,4107]},
{"City":"Hot Springs","DBTZ":"D","Name":"Ingalls Field","Country":"US","IATA/FAA":"HSP","Longitude":null,"Airport ID":"KHSP","Latitude":null,"Timezone":698,"DST":-6,"destinations":[2276,3516]},
{"City":"White Mountain","DBTZ":"E","Name":"White Mountain Airport","Country":"US","IATA/FAA":"WMO","Longitude":null,"Airport ID":"PAWM","Latitude":null,"Timezone":379,"DST":-1,"destinations":[4593,4718]},
{"City":"Belfast","DBTZ":"A","Name":"Sabi Sabi Airport","Country":"ZA","IATA/FAA":"GSS","Longitude":null,"Airport ID":"FASE","Latitude":null,"Timezone":588,"DST":12,"destinations":[6527,8457,1992]},
{"City":"Scotts Valley","DBTZ":"E","Name":"Santa Cruz Sky Park","Country":"US","IATA/FAA":"SRU","Longitude":null,"Airport ID":null,"Latitude":null,"Timezone":222,"DST":-6,"destinations":[89]},
{"City":"Camden","DBTZ":"A","Name":"Harrell Field","Country":"US","IATA/FAA":"CDH","Longitude":null,"Airport ID":"KCDH","Latitude":null,"Timezone":84,"DST":-3,"destinations":[365]},
{"City":"Pumululu National Park","DBTZ":"D","Name":"Bellburn Airstrip","Country":"AU","IATA/FAA":"BXF","Longitude":null,"Airport ID":"YBEB","Latitude":null,"Timezone":786,"DST":4,"destinations":[9604,4225,9210]},
{"City":"Isla Colón","DBTZ":"E","Name":"Bocas Del Toro International Airport","Country":"PA","IATA/FAA":"BOC","Longitude":null,"Airport ID":"MPBO","Latitude":null,"Timezone":369,"DST":-7,"destinations":[9540]},
{"City":"Kadanwari","DBTZ":"E","Name":"Kadanwari Airport","Country":"PK","IATA/FAA":"KCF","Longitude":null,"Airport ID":"OPKW","Latitude":null,"Timezone":881,"DST":0,"destinations":[2735]},
{"City":"Kristianstad","DBTZ":"D","Name":"Kristianstad Airport","Country":"SE","IATA/FAA":"KID","Longitude":null,"Airport ID":"ESMK","Latitude":null,"Timezone":74,"DST":-9,"destinations":[9865,3495,8866]},
{"City":"Guari","DBTZ":"B","Name":"Guari Airport","Country":"PG","IATA/FAA":"GUG","Longitude":null,"Airport ID":"AYGF","Latitude":null,"Timezone":846,"DST":-10,"destinations":[7266]},
{"City":"Cleveland","DBTZ":"D","Name":"Burke Lakefront Airport","Country":"US","IATA/FAA":"BKL","Longitude":null,"Airport ID":"KBKL","Latitude":null,"Timezone":596,"DST":-2,"destinations":[3857,4833,8390]},
{"City":"Tabatinga","DBTZ":"A","Name":"Tabatinga Airport","Country":"BR","IATA/FAA":"TBT","Longitude":null,"Airport ID":"SBTT","Latitude":null,"Timezone":870,"DST":-5,"destinations":[291]},
{"City":"Cheyenne","DBTZ":"D","Name":"Cheyenne Regional Jerry Olson Field","Country":"US","IATA/FAA":"CYS","Longitude":null,"Airport ID":"KCYS","Latitude":null,"Timezone":48,"DST":-5,"destinations":[9756]},
{"City":"Fderik","DBTZ":"A","Name":"Fderik Airport","Country":"MR","IATA/FAA":"FGD","Longitude":null,"Airport ID":"GQPF","Latitude":null,"Timezone":386,"DST":-5,"destinations":[7152,8987,2523]},
{"City":"Heidelberg","DBTZ":"D","Name":"Heidelberg Army Helicopter Base","Country":"DE","IATA/FAA":"HDB","Longitude":null,"Airport ID":"ETIE","Latitude":null,"Timezone":219,"DST":12,"destinations":[1360,6371,9213]},
{"City":"Lereh-Papua Island","DBTZ":"C","Name":"Lereh Airport","Country":"ID","IATA/FAA":"LHI","Longitude":null,"Airport ID":"WAJL","Latitude":null,"Timezone":314,"DST":-2,"destinations":[9494,4184]},
{"City":"Alice","DBTZ":"A","Name":"Alice International Airport","Country":"US","IATA/FAA":"ALI","Longitude":null,"Airport ID":"KALI","Latitude":null,"Timezone":858,"DST":-1,"destinations":[2101,5252,1398]},
{"City":"Invercargill","DBTZ":"B","Name":"Invercargill Airport","Country":"NZ","IATA/FAA":"IVC","Longitude":null,"Airport ID":"NZNV","Latitude":null,"Timezone":966,"DST":1,"destinations":[1748]},
{"City":"Mende","DBTZ":"C","Name":"Mont-Dauphin - St-Crépin Airport","Country":"FR","IATA/FAA":"SCP","Longitude":null,"Airport ID":"LFNC","Latitude":null,"Timezone":316,"DST":-4,"destinations":[2830,6920]},
{"City":"Rumbek","DBTZ":"D","Name":"Rumbek Airport","Country":"SS","IATA/FAA":"RBX","Longitude":null,"Airport ID":"HSMK","Latitude":null,"Timezone":133,"DST":-8,"destinations":[8683,7022]},
{"City":"Smithers","DBTZ":"A","Name":"Smithers Airport","Country":"CA","IATA/FAA":"YYD","Longitude":null,"Airport ID":"CYYD","Latitude":null,"Timezone":224,"DST":8,"destinations":[6161,1444]},
{"City":"Obo","DBTZ":"C","Name":"Obo Airport","Country":"PG","IATA/FAA":"OBX","Longitude":null,"Airport ID":"AYOB","Latitude":null,"Timezone":177,"DST":-11,"destinations":[8537,8501,9777]},
{"City":"New Philadelphia","DBTZ":"C","Name":"Harry Clever Field","Country":"US","IATA/FAA":"PHD","Longitude":null,"Airport ID":"KPHD","Latitude":null,"Timezone":743,"DST":-6,"destinations":[2729]},
{"City":"Grand Rapids","DBTZ":"B","Name":"Grand Rapids Itasca Co-Gordon Newstrom field","Country":"US","IATA/FAA":"GPZ","Longitude":null,"Airport ID":"KGPZ","Latitude":null,"Timezone":850,"DST":5,"destinations":[3349]},
{"City":"Xi'an","DBTZ":"A","Name":"Xi'an Xianyang International Airport","Country":"CN","IATA/FAA":"XIY","Longitude":null,"Airport ID":"ZLXY","Latitude":null,"Timezone":134,"DST":12,"destinations":[449,6294]},
{"City":"Creston","DBTZ":"C","Name":"Creston Valley Regional Airport - Art Sutcliffe Field","Country":"CA","IATA/FAA":"CFQ","Longitude":null,"Airport ID":"CAJ3","Latitude":null,"Timezone":128,"DST":10,"destinations":[4458,352,1255]},
{"City":"Hill City","DBTZ":"E","Name":"Hill City Municipal Airport","Country":"US","IATA/FAA":"HLC","Longitude":null,"Airport ID":"KHLC","Latitude":null,"Timezone":124,"DST":9,"destinations":[5516]},
{"City":"Perth","DBTZ":"D","Name":"Perth International Airport","Country":"AU","IATA/FAA":"PER","Longitude":null,"Airport ID":"YPPH","Latitude":null,"Timezone":505,"DST":-3,"destinations":[894,2993,1283]},
{"City":"Sand Creek","DBTZ":"E","Name":"Sand Creek Airport","Country":"GY","IATA/FAA":"SDC","Longitude":null,"Airport ID":"SYSC","Latitude":null,"Timezone":730,"DST":-3,"destinations":[7319]},
{"City":"East Stroudsburg","DBTZ":"C","Name":"Stroudsburg Pocono Airport","Country":"US","IATA/FAA":"ESP","Longitude":null,"Airport ID":"KN53","Latitude":null,"Timezone":511,"DST":4,"destinations":[1186,7598]},
{"City":"Holbrook","DBTZ":"A","Name":"Holbrook Municipal Airport","Country":"US","IATA/FAA":"HBK","Longitude":null,"Airport ID":"P14","Latitude":null,"Timezone":221,"DST":5,"destinations":[8508,3818,4291]},
{"City":"Tupai Atoll","DBTZ":"A","Name":"Tupai Airport","Country":"PF","IATA/FAA":"TPX","Longitude":null,"Airport ID":"NTTU","Latitude":null,"Timezone":962,"DST":10,"destinations":[5232]},
{"City":"Dubai","DBTZ":"A","Name":"Al Minhad Air Base","Country":"AE","IATA/FAA":"NHD","Longitude":null,"Airport ID":"OMDM","Latitude":null,"Timezone":634,"DST":5,"destinations":[3486]},
{"City":"Vahitahi","DBTZ":"A","Name":"Vahitahi Airport","Country":"PF","IATA/FAA":"VHZ","Longitude":null,"Airport ID":"NTUV","Latitude":null,"Timezone":257,"DST":6,"destinations":[8180,7011]},
{"City":"Venetie","DBTZ":"A","Name":"Venetie Airport","Country":"US","IATA/FAA":"VEE","Longitude":null,"Airport ID":"PAVE","Latitude":null,"Timezone":89,"DST":-1,"destinations":[2750,5620,8196]},
{"City":"Baie-Comeau","DBTZ":"E","Name":"Baie Comeau Airport","Country":"CA","IATA/FAA":"YBC","Longitude":null,"Airport ID":"CYBC","Latitude":null,"Timezone":849,"DST":-8,"destinations":[6316]},
{"City":"Portland","DBTZ":"C","Name":"Portland Hillsboro Airport","Country":"US","IATA/FAA":"HIO","Longitude":null,"Airport ID":"KHIO","Latitude":null,"Timezone":282,"DST":3,"destinations":[6588,3920]},
{"City":"Ouvéa","DBTZ":"D","Name":"Ouvéa Airport","Country":"NC","IATA/FAA":"UVE","Longitude":null,"Airport ID":"NWWV","Latitude":null,"Timezone":487,"DST":2,"destinations":[5207,8319]},
{"City":"N'zeto","DBTZ":"C","Name":"N'zeto Airport","Country":"AO","IATA/FAA":"ARZ","Longitude":null,"Airport ID":"FNZE","Latitude":null,"Timezone":929,"DST":9,"destinations":[7732,4754]},
{"City":"Baicheng","DBTZ":"E","Name":"Baicheng Chang'an Airport","Country":"CN","IATA/FAA":"DBC","Longitude":null,"Airport ID":"ZYBA","Latitude":null,"Timezone":507,"DST":-5,"destinations":[2080,4144,8064]},
{"City":"Heho","DBTZ":"D","Name":"Heho Airport","Country":"MM","IATA/FAA":"HEH","Longitude":null,"Airport ID":"VYHH","Latitude":null,"Timezone":621,"DST":1,"destinations":[4329,4726]},
{"City":"Comox","DBTZ":"E","Name":"Comox Airport","Country":"CA","IATA/FAA":"YQQ","Longitude":null,"Airport ID":"CYQQ","Latitude":null,"Timezone":149,"DST":-12,"destinations":[2251]},
{"City":"Nacogdoches","DBTZ":"B","Name":"A L Mangham Jr. Regional Airport","Country":"US","IATA/FAA":"OCH","Longitude":null,"Airport ID":"KOCH","Latitude":null,"Timezone":93,"DST":-7,"destinations":[1296,7487,1937]},
{"City":null,"DBTZ":"D","Name":"Southern Cross Airport","Country":"AU","IATA/FAA":"SQC","Longitude":null,"Airport ID":"YSCR","Latitude":null,"Timezone":673,"DST":-11,"destinations":[6374,5290,9050]},
{"City":"Båtsfjord","DBTZ":"E","Name":"Båtsfjord Airport","Country":"NO","IATA/FAA":"BJF","Longitude":null,"Airport ID":"ENBS","Latitude":null,"Timezone":635,"DST":10,"destinations":[3522,8721]},
{"City":"Matagorda Island","DBTZ":"E","Name":"Matagorda Island Air Force Base","Country":"US","IATA/FAA":"MGI","Longitude":null,"Airport ID":null,"Latitude":null,"Timezone":704,"DST":-8,"destinations":[6488]},
{"City":"Tasu","DBTZ":"B","Name":"Tasu Water Aerodrome","Country":"CA","IATA/FAA":"YTU","Longitude":null,"Airport ID":null,"Latitude":null,"Timezone":739,"DST":-5,"destinations":[8024,8764]},
{"City":"Skagway","DBTZ":"C","Name":"Skagway Airport","Country":"US","IATA/FAA":"SGY","Longitude":null,"Airport ID":"PAGY","Latitude":null,"Timezone":757,"DST":-2,"destinations":[3062]},
{"City":"Båtsfjord","DBTZ":"B","Name":"Båtsfjord Airport","Country":"NO","IATA/FAA":"BJF","Longitude":null,"Airport ID":"ENBS","Latitude":null,"Timezone":806,"DST":-6,"destinations":[7043,5952]},
{"City":"Jonesboro","DBTZ":"E","Name":"Jonesboro Municipal Airport","Country":"US","IATA/FAA":"JBR","Longitude":null,"Airport ID":"KJBR","Latitude":null,"Timezone":609,"DST":-6,"destinations":[6715,4374,1766]},
{"City":"Kalakaket Creek","DBTZ":"B","Name":"Kalakaket Creek AS Airport","Country":"US","IATA/FAA":"KKK","Longitude":null,"Airport ID":"1KC","Latitude":null,"Timezone":970,"DST":-8,"destinations":[5772]},
{"City":"Rock Hill","DBTZ":"E","Name":"Rock Hill - York County Airport","Country":"US","IATA/FAA":"RKH","Longitude":null,"Airport ID":"KUZA","Latitude":null,"Timezone":545,"DST":-1,"destinations":[6977]},
{"City":"Points North Landing","DBTZ":"E","Name":"Points North Landing Airport","Country":"CA","IATA/FAA":"YNL","Longitude":null,"Airport ID":"CYNL","Latitude":null,"Timezone":225,"DST":11,"destinations":[3064]},
{"City":"Whiteriver","DBTZ":"B","Name":"Whiteriver Airport","Country":"US","IATA/FAA":"WTR","Longitude":null,"Airport ID":"E24","Latitude":null,"Timezone":963,"DST":-4,"destinations":[6550]},
{"City":null,"DBTZ":"E","Name":"Beloyarskiy Airport","Country":"RU","IATA/FAA":"EYK","Longitude":null,"Airport ID":"USHQ","Latitude":null,"Timezone":926,"DST":-4,"destinations":[5476,2920]},
{"City":"Bavannur","DBTZ":"D","Name":"Bayannur Tianjitai Airport","Country":"CN","IATA/FAA":"RLK","Longitude":null,"Airport ID":"ZBYZ","Latitude":null,"Timezone":441,"DST":9,"destinations":[5848]},
{"City":"Mainoru","DBTZ":"E","Name":"Mainoru Airstrip","Country":"AU","IATA/FAA":"MIZ","Longitude":null,"Airport ID":null,"Latitude":null,"Timezone":721,"DST":6,"destinations":[6665,2940,9065]},
{"City":"Yongzhou","DBTZ":"E","Name":"Lingling Airport","Country":"CN","IATA/FAA":"LLF","Longitude":null,"Airport ID":"ZGLG","Latitude":null,"Timezone":956,"DST":3,"destinations":[2601,3072,4700]},
{"City":"Roseau","DBTZ":"D","Name":"Roseau Municipal Rudy Billberg Field","Country":"US","IATA/FAA":"ROX","Longitude":null,"Airport ID":"KROX","Latitude":null,"Timezone":546,"DST":10,"destinations":[1362,2406]},
{"City":"Aguascalientes","DBTZ":"C","Name":"Jesús Terán Paredo International Airport","Country":"MX","IATA/FAA":"AGU","Longitude":null,"Airport ID":"MMAS","Latitude":null,"Timezone":172,"DST":-12,"destinations":[4899,9952,1812]},
{"City":"Sauðárkrókur","DBTZ":"C","Name":"Sauðárkrókur Airport","Country":"IS","IATA/FAA":"SAK","Longitude":null,"Airport ID":"BIKR","Latitude":null,"Timezone":706,"DST":-6,"destinations":[9326,6700]},
{"City":"Miquelon","DBTZ":"A","Name":"Miquelon Airport","Country":"PM","IATA/FAA":"MQC","Longitude":null,"Airport ID":"LFVM","Latitude":null,"Timezone":212,"DST":-7,"destinations":[237]},
{"City":"Isla de la Juventud","DBTZ":"C","Name":"Siguanea Airport","Country":"CU","IATA/FAA":"SZJ","Longitude":null,"Airport ID":"MUSN","Latitude":null,"Timezone":521,"DST":-8,"destinations":[5701,6397]},
{"City":"Tampa","DBTZ":"D","Name":"Tampa International Airport","Country":"US","IATA/FAA":"TPA","Longitude":null,"Airport ID":"KTPA","Latitude":null,"Timezone":512,"DST":1,"destinations":[7402,7545]},
{"City":"Sandspit","DBTZ":"A","Name":"Sandspit Airport","Country":"CA","IATA/FAA":"YZP","Longitude":null,"Airport ID":"CYZP","Latitude":null,"Timezone":84,"DST":0,"destinations":[7569,9990,7921]},
{"City":null,"DBTZ":"A","Name":"Tangalooma Airport","Country":"AU","IATA/FAA":"TAN","Longitude":null,"Airport ID":"YTGA","Latitude":null,"Timezone":122,"DST":4,"destinations":[7407,5277,2384]},
{"City":"Parana","DBTZ":"E","Name":"General Urquiza Airport","Country":"AR","IATA/FAA":"PRA","Longitude":null,"Airport ID":"SAAP","Latitude":null,"Timezone":242,"DST":-4,"destinations":[5973,5081]},
{"City":"Kokomo","DBTZ":"C","Name":"Kokomo Municipal Airport","Country":"US","IATA/FAA":"OKK","Longitude":null,"Airport ID":"KOKK","Latitude":null,"Timezone":440,"DST":2,"destinations":[7350]},
{"City":"Chabahar","DBTZ":"C","Name":"Konarak Airport","Country":"IR","IATA/FAA":"ZBR","Longitude":null,"Airport ID":"OIZC","Latitude":null,"Timezone":668,"DST":4,"destinations":[6844,2229]},
{"City":"Tumbes","DBTZ":"A","Name":"Capitan FAP Pedro Canga Rodriguez Airport","Country":"PE","IATA/FAA":"TBP","Longitude":null,"Airport ID":"SPME","Latitude":null,"Timezone":504,"DST":-2,"destinations":[4251]},
{"City":"Kimberley Downs","DBTZ":"D","Name":"Kimberley Downs Airport","Country":"AU","IATA/FAA":"KBD","Longitude":null,"Airport ID":null,"Latitude":null,"Timezone":96,"DST":0,"destinations":[857,1173,8923]},
{"City":"Popayán","DBTZ":"E","Name":"Guillermo León Valencia Airport","Country":"CO","IATA/FAA":"PPN","Longitude":null,"Airport ID":"SKPP","Latitude":null,"Timezone":770,"DST":-12,"destinations":[3549,8883]},
{"City":"Limestone","DBTZ":"E","Name":"Loring International Airport","Country":"US","IATA/FAA":"LIZ","Longitude":null,"Airport ID":"ME16","Latitude":null,"Timezone":893,"DST":0,"destinations":[2018]},
{"City":"Timimoun","DBTZ":"B","Name":"Timimoun Airport","Country":"DZ","IATA/FAA":"TMX","Longitude":null,"Airport ID":"DAUT","Latitude":null,"Timezone":12,"DST":-4,"destinations":[7259,5609,1039]},
{"City":"Arboletes","DBTZ":"A","Name":"Arboletes Airport","Country":"CO","IATA/FAA":"ARO","Longitude":null,"Airport ID":null,"Latitude":null,"Timezone":797,"DST":3,"destinations":[3421]},
{"City":"Batuna Mission Station","DBTZ":"E","Name":"Batuna Aerodrome","Country":"SB","IATA/FAA":"BPF","Longitude":null,"Airport ID":"AGBT","Latitude":null,"Timezone":693,"DST":-1,"destinations":[3846]},
{"City":"Enterprise","DBTZ":"D","Name":"Enterprise Municipal Airport","Country":"US","IATA/FAA":"ETS","Longitude":null,"Airport ID":"KEDN","Latitude":null,"Timezone":969,"DST":-12,"destinations":[3646]},
{"City":"Rio Dulce","DBTZ":"B","Name":"Las Vegas Airport","Country":"GT","IATA/FAA":"LCF","Longitude":null,"Airport ID":"MGRD","Latitude":null,"Timezone":400,"DST":1,"destinations":[7158]},
{"City":"Essaouira","DBTZ":"C","Name":"Mogador Airport","Country":"MA","IATA/FAA":"ESU","Longitude":null,"Airport ID":"GMMI","Latitude":null,"Timezone":622,"DST":1,"destinations":[3683]},
{"City":"Mucuri","DBTZ":"B","Name":"Mucuri Airport","Country":"BR","IATA/FAA":"MVS","Longitude":null,"Airport ID":"SNMU","Latitude":null,"Timezone":933,"DST":-7,"destinations":[4989]},
{"City":"Brigham City","DBTZ":"B","Name":"Brigham City Regional Airport","Country":"US","IATA/FAA":"BMC","Longitude":null,"Airport ID":"KBMC","Latitude":null,"Timezone":378,"DST":3,"destinations":[5129]},
{"City":"Lolland Falster / Maribo","DBTZ":"B","Name":"Lolland Falster Maribo Airport","Country":"DK","IATA/FAA":"MRW","Longitude":null,"Airport ID":"EKMB","Latitude":null,"Timezone":408,"DST":-9,"destinations":[3380]},
{"City":"Zhongwei","DBTZ":"A","Name":"Zhongwei Shapotou Airport","Country":"CN","IATA/FAA":"ZHY","Longitude":null,"Airport ID":"ZLZW","Latitude":null,"Timezone":126,"DST":1,"destinations":[5324,8992]},
{"City":"Shimojishima","DBTZ":"A","Name":"Shimojishima Airport","Country":"JP","IATA/FAA":"SHI","Longitude":null,"Airport ID":"RORS","Latitude":null,"Timezone":557,"DST":-4,"destinations":[210]},
{"City":"Arkalyk","DBTZ":"E","Name":"Arkalyk North Airport","Country":"KZ","IATA/FAA":"AYK","Longitude":null,"Airport ID":"UAUR","Latitude":null,"Timezone":999,"DST":5,"destinations":[8178,1604]},
{"City":null,"DBTZ":"D","Name":"Mornington Island Airport","Country":"AU","IATA/FAA":"ONG","Longitude":null,"Airport ID":"YMTI","Latitude":null,"Timezone":760,"DST":-2,"destinations":[4079,4049,5411]},
{"City":"Boca do Acre","DBTZ":"C","Name":"Novo Campo Airport","Country":"BR","IATA/FAA":"BCR","Longitude":null,"Airport ID":"SWNK","Latitude":null,"Timezone":524,"DST":11,"destinations":[6391,7488,6484]},
{"City":"Hoieti","DBTZ":"B","Name":"Kamina Airport","Country":"PG","IATA/FAA":"KMF","Longitude":null,"Airport ID":"AYKD","Latitude":null,"Timezone":94,"DST":10,"destinations":[2700]},
{"City":"Tin City","DBTZ":"A","Name":"Tin City Long Range Radar Station Airport","Country":"US","IATA/FAA":"TNC","Longitude":null,"Airport ID":"PATC","Latitude":null,"Timezone":717,"DST":-4,"destinations":[2939,2472]},
{"City":"Vallegrande","DBTZ":"C","Name":"Capitán Av. Vidal Villagomez Toledo Airport","Country":"BO","IATA/FAA":"VAH","Longitude":null,"Airport ID":"SLVG","Latitude":null,"Timezone":190,"DST":-8,"destinations":[2759,2954,8629]},
{"City":"Latur","DBTZ":"C","Name":"Murod Kond Airport","Country":"IN","IATA/FAA":"LTU","Longitude":null,"Airport ID":"VALT","Latitude":null,"Timezone":737,"DST":0,"destinations":[8547,4677,761]},
{"City":"Maniitsoq","DBTZ":"A","Name":"Maniitsoq Airport","Country":"GL","IATA/FAA":"JSU","Longitude":null,"Airport ID":"BGMQ","Latitude":null,"Timezone":229,"DST":8,"destinations":[2035,9583,929]},
{"City":"Christchurch","DBTZ":"B","Name":"Christchurch International Airport","Country":"NZ","IATA/FAA":"CHC","Longitude":null,"Airport ID":"NZCH","Latitude":null,"Timezone":273,"DST":-8,"destinations":[9245]},
{"City":"Toulouse/Blagnac","DBTZ":"C","Name":"Toulouse-Blagnac Airport","Country":"FR","IATA/FAA":"TLS","Longitude":null,"Airport ID":"LFBO","Latitude":null,"Timezone":434,"DST":2,"destinations":[2807,5473]},
{"City":"Chita","DBTZ":"D","Name":"Chita-Kadala Airport","Country":"RU","IATA/FAA":"HTA","Longitude":null,"Airport ID":"UIAA","Latitude":null,"Timezone":802,"DST":0,"destinations":[1746,1071,8010]},
{"City":"Quincy","DBTZ":"D","Name":"Gansner Field","Country":"US","IATA/FAA":"GNF","Longitude":null,"Airport ID":null,"Latitude":null,"Timezone":913,"DST":-9,"destinations":[4779,9029,2253]},
{"City":null,"DBTZ":"B","Name":"Heathlands Airport","Country":"AU","IATA/FAA":"HAT","Longitude":null,"Airport ID":"YHTL","Latitude":null,"Timezone":661,"DST":11,"destinations":[6064]},
{"City":"Santa Terezinha","DBTZ":"C","Name":"Santa Terezinha Airport","Country":"BR","IATA/FAA":"STZ","Longitude":null,"Airport ID":"SWST","Latitude":null,"Timezone":393,"DST":2,"destinations":[2139]},
{"City":"Tongliao","DBTZ":"A","Name":"Tongliao Airport","Country":"CN","IATA/FAA":"TGO","Longitude":null,"Airport ID":"ZBTL","Latitude":null,"Timezone":368,"DST":10,"destinations":[9062]},
{"City":"Matsuyama","DBTZ":"A","Name":"Matsuyama Airport","Country":"JP","IATA/FAA":"MYJ","Longitude":null,"Airport ID":"RJOM","Latitude":null,"Timezone":650,"DST":-3,"destinations":[1899]},
{"City":"San Luis Obispo","DBTZ":"C","Name":"San Luis County Regional Airport","Country":"US","IATA/FAA":"SBP","Longitude":null,"Airport ID":"KSBP","Latitude":null,"Timezone":859,"DST":6,"destinations":[7605,6429,9854]},
{"City":"Attu","DBTZ":"D","Name":"Casco Cove Coast Guard Station","Country":"US","IATA/FAA":"ATU","Longitude":null,"Airport ID":"PAAT","Latitude":null,"Timezone":255,"DST":-5,"destinations":[6778,9904]},
{"City":"Candle","DBTZ":"C","Name":"Candle 2 Airport","Country":"US","IATA/FAA":"CDL","Longitude":null,"Airport ID":"AK75","Latitude":null,"Timezone":783,"DST":1,"destinations":[6884,8081,706]},
{"City":"Marigot","DBTZ":"D","Name":"Douglas-Charles Airport","Country":"DM","IATA/FAA":"DOM","Longitude":null,"Airport ID":"TDPD","Latitude":null,"Timezone":461,"DST":-11,"destinations":[4807,9029]},
{"City":"Ruidoso","DBTZ":"A","Name":"Sierra Blanca Regional Airport","Country":"US","IATA/FAA":"RUI","Longitude":null,"Airport ID":"KSRR","Latitude":null,"Timezone":657,"DST":4,"destinations":[8398,2253]},
{"City":"Balesin","DBTZ":"D","Name":"Balesin Island Airport","Country":"PH","IATA/FAA":"BSI","Longitude":null,"Airport ID":"RPBL","Latitude":null,"Timezone":568,"DST":-9,"destinations":[174,2627]},
{"City":"Amery","DBTZ":"A","Name":"Amery Municipal Airport","Country":"US","IATA/FAA":"AHH","Longitude":null,"Airport ID":"KAHH","Latitude":null,"Timezone":207,"DST":-5,"destinations":[4074,1555]},
{"City":"Waikabubak-Sumba Island","DBTZ":"A","Name":"Tambolaka Airport","Country":"ID","IATA/FAA":"TMC","Longitude":null,"Airport ID":"WATK","Latitude":null,"Timezone":736,"DST":-11,"destinations":[7668,7818]},
{"City":"Betou","DBTZ":"A","Name":"Betou Airport","Country":"CG","IATA/FAA":"BTB","Longitude":null,"Airport ID":"FCOT","Latitude":null,"Timezone":636,"DST":-6,"destinations":[3238,8145]},
{"City":"Ankazoabo","DBTZ":"A","Name":"Ankazoabo Airport","Country":"MG","IATA/FAA":"WAK","Longitude":null,"Airport ID":"FMSZ","Latitude":null,"Timezone":364,"DST":-7,"destinations":[7107,2750]},
{"City":"Rimini","DBTZ":"C","Name":"Federico Fellini International Airport","Country":"IT","IATA/FAA":"RMI","Longitude":null,"Airport ID":"LIPR","Latitude":null,"Timezone":89,"DST":-8,"destinations":[2717]},
{"City":"Makokou","DBTZ":"C","Name":"Makokou Airport","Country":"GA","IATA/FAA":"MKU","Longitude":null,"Airport ID":"FOOK","Latitude":null,"Timezone":245,"DST":5,"destinations":[6648,4796,9548]},
{"City":"Utopia Creek","DBTZ":"D","Name":"Indian Mountain LRRS Airport","Country":"US","IATA/FAA":"UTO","Longitude":null,"Airport ID":"PAIM","Latitude":null,"Timezone":585,"DST":-7,"destinations":[5106]},
{"City":"Champaign/Urbana","DBTZ":"A","Name":"University of Illinois Willard Airport","Country":"US","IATA/FAA":"CMI","Longitude":null,"Airport ID":"KCMI","Latitude":null,"Timezone":358,"DST":-3,"destinations":[2683,7942,5930]},
{"City":"Manta","DBTZ":"B","Name":"Eloy Alfaro International Airport","Country":"EC","IATA/FAA":"MEC","Longitude":null,"Airport ID":"SEMT","Latitude":null,"Timezone":334,"DST":7,"destinations":[740,6740,4954]},
{"City":"Ji'an","DBTZ":"A","Name":"Jinggangshan Airport","Country":"CN","IATA/FAA":"JGS","Longitude":null,"Airport ID":"ZSJA","Latitude":null,"Timezone":654,"DST":-12,"destinations":[1685,6956,6712]},
{"City":"Rajshahi","DBTZ":"A","Name":"Shah Mokhdum Airport","Country":"BD","IATA/FAA":"RJH","Longitude":null,"Airport ID":"VGRJ","Latitude":null,"Timezone":212,"DST":-2,"destinations":[6028]},
{"City":"Kaunakakai","DBTZ":"D","Name":"Molokai Airport","Country":"US","IATA/FAA":"MKK","Longitude":null,"Airport ID":"PHMK","Latitude":null,"Timezone":273,"DST":9,"destinations":[6033]},
{"City":"Greenville","DBTZ":"E","Name":"Greenville Spartanburg International Airport","Country":"US","IATA/FAA":"GSP","Longitude":null,"Airport ID":"KGSP","Latitude":null,"Timezone":774,"DST":11,"destinations":[6603,7165]},
{"City":"Ulyanovsk","DBTZ":"E","Name":"Ulyanovsk Baratayevka Airport","Country":"RU","IATA/FAA":"ULV","Longitude":null,"Airport ID":"UWLL","Latitude":null,"Timezone":512,"DST":5,"destinations":[5238,8832,8751]},
{"City":"Shangrao","DBTZ":"C","Name":"Shangrao Sanqingshan Airport","Country":"CN","IATA/FAA":"SQD","Longitude":null,"Airport ID":"ZSSR","Latitude":null,"Timezone":298,"DST":1,"destinations":[9847]},
{"City":"Barrow-in-Furness","DBTZ":"B","Name":"Barrow Walney Island Airport","Country":"GB","IATA/FAA":"BWF","Longitude":null,"Airport ID":"EGNL","Latitude":null,"Timezone":131,"DST":6,"destinations":[741,7989]},
{"City":"Iaciara","DBTZ":"B","Name":"Iaciara Airport","Country":"BR","IATA/FAA":"0","Longitude":null,"Airport ID":"SWIA","Latitude":null,"Timezone":692,"DST":-10,"destinations":[3696]},
{"City":"Cabo Frio","DBTZ":"D","Name":"Cabo Frio Airport","Country":"BR","IATA/FAA":"CFB","Longitude":null,"Airport ID":"SBCB","Latitude":null,"Timezone":919,"DST":-6,"destinations":[7842,3861,3640]},
{"City":"Alexander City","DBTZ":"A","Name":"Thomas C Russell Field","Country":"US","IATA/FAA":"ALX","Longitude":null,"Airport ID":"KALX","Latitude":null,"Timezone":144,"DST":1,"destinations":[3653]},
{"City":null,"DBTZ":"D","Name":"Warrnambool Airport","Country":"AU","IATA/FAA":"WMB","Longitude":null,"Airport ID":"YWBL","Latitude":null,"Timezone":242,"DST":4,"destinations":[159,3811,2101]},
{"City":"Osceola","DBTZ":"D","Name":"L O Simenstad Municipal Airport","Country":"US","IATA/FAA":"OEO","Longitude":null,"Airport ID":"KOEO","Latitude":null,"Timezone":725,"DST":-3,"destinations":[2870,1208]},
{"City":"Namsang","DBTZ":"A","Name":"Namsang Airport","Country":"MM","IATA/FAA":"NMS","Longitude":null,"Airport ID":"VYNS","Latitude":null,"Timezone":126,"DST":-2,"destinations":[9620]},
{"City":"Vancouver","DBTZ":"C","Name":"Vancouver International Airport","Country":"CA","IATA/FAA":"YVR","Longitude":null,"Airport ID":"CYVR","Latitude":null,"Timezone":354,"DST":11,"destinations":[7862,2385,9582]},
{"City":"Lüliang","DBTZ":"A","Name":"Lüliang Airport","Country":"CN","IATA/FAA":"LLV","Longitude":null,"Airport ID":"ZBLL","Latitude":null,"Timezone":859,"DST":0,"destinations":[6497,2428]},
{"City":"Port Alexander","DBTZ":"D","Name":"Port Alexander Seaplane Base","Country":"US","IATA/FAA":"PTD","Longitude":null,"Airport ID":"PAAP","Latitude":null,"Timezone":974,"DST":5,"destinations":[3622,9577,8062]},
{"City":"Bazaruto Island","DBTZ":"E","Name":"Bazaruto Island Airport","Country":"MZ","IATA/FAA":"BZB","Longitude":null,"Airport ID":null,"Latitude":null,"Timezone":124,"DST":-4,"destinations":[3676,3619]},
{"City":"Hawarden","DBTZ":"C","Name":"Hawarden Airport","Country":"GB","IATA/FAA":"CEG","Longitude":null,"Airport ID":"EGNR","Latitude":null,"Timezone":352,"DST":5,"destinations":[932]},
{"City":"Cape Newenham","DBTZ":"E","Name":"Cape Newenham LRRS Airport","Country":"US","IATA/FAA":"EHM","Longitude":null,"Airport ID":"PAEH","Latitude":null,"Timezone":589,"DST":7,"destinations":[5677,8577]},
{"City":null,"DBTZ":"C","Name":"Osborne Mine Airport","Country":"AU","IATA/FAA":"OSO","Longitude":null,"Airport ID":"YOSB","Latitude":null,"Timezone":2,"DST":-7,"destinations":[7421]},
{"City":"Castres/Mazamet","DBTZ":"B","Name":"Castres-Mazamet Airport","Country":"FR","IATA/FAA":"DCM","Longitude":null,"Airport ID":"LFCK","Latitude":null,"Timezone":769,"DST":1,"destinations":[2208,2282,1730]},
{"City":"Coolibah","DBTZ":"D","Name":"Coolibah Airport","Country":"AU","IATA/FAA":"COB","Longitude":null,"Airport ID":null,"Latitude":null,"Timezone":297,"DST":-1,"destinations":[3142]},
{"City":"Cheadle","DBTZ":"B","Name":"Cheadle Airport","Country":"CA","IATA/FAA":"TIL","Longitude":null,"Airport ID":"CFQ4","Latitude":null,"Timezone":293,"DST":3,"destinations":[3864,4420,5701]},
{"City":"Cambridge","DBTZ":"E","Name":"Cambridge Dorchester Airport","Country":"US","IATA/FAA":"CGE","Longitude":null,"Airport ID":"KCGE","Latitude":null,"Timezone":923,"DST":4,"destinations":[2982,6603,6448]},
{"City":"Houghton Lake","DBTZ":"A","Name":"Roscommon County - Blodgett Memorial Airport","Country":"US","IATA/FAA":"HTL","Longitude":null,"Airport ID":"KHTL","Latitude":null,"Timezone":355,"DST":-2,"destinations":[6953]},
{"City":"Porbandar","DBTZ":"B","Name":"Porbandar Airport","Country":"IN","IATA/FAA":"PBD","Longitude":null,"Airport ID":"VAPR","Latitude":null,"Timezone":451,"DST":11,"destinations":[138,7226]},
{"City":"Caquetania","DBTZ":"B","Name":"Caquetania Airport","Country":"CO","IATA/FAA":"CQT","Longitude":null,"Airport ID":null,"Latitude":null,"Timezone":516,"DST":5,"destinations":[2382,9760,2603]},
{"City":"Cold Bay","DBTZ":"C","Name":"Port Moller Airport","Country":"US","IATA/FAA":"PML","Longitude":null,"Airport ID":"PAAL","Latitude":null,"Timezone":430,"DST":-8,"destinations":[8640,8096,1584]},
{"City":"Magnolia","DBTZ":"B","Name":"Ralph C Weiser Field","Country":"US","IATA/FAA":"AGO","Longitude":null,"Airport ID":"KAGO","Latitude":null,"Timezone":563,"DST":-9,"destinations":[6813,8964,7382]},
{"City":"Iberia","DBTZ":"E","Name":"Iberia Airport","Country":"PE","IATA/FAA":"IBP","Longitude":null,"Airport ID":"SPBR","Latitude":null,"Timezone":828,"DST":1,"destinations":[251,3395]},
{"City":"Ogle","DBTZ":"C","Name":"Eugene F. Correira International Airport","Country":"GY","IATA/FAA":"OGL","Longitude":null,"Airport ID":"SYEC","Latitude":null,"Timezone":750,"DST":-1,"destinations":[7665,3253]},
{"City":"Baotou","DBTZ":"A","Name":"Baotou Airport","Country":"CN","IATA/FAA":"BAV","Longitude":null,"Airport ID":"ZBOW","Latitude":null,"Timezone":132,"DST":3,"destinations":[783,4626]},
{"City":null,"DBTZ":"A","Name":"Jundah Airport","Country":"AU","IATA/FAA":"JUN","Longitude":null,"Airport ID":"YJDA","Latitude":null,"Timezone":442,"DST":12,"destinations":[6440,3649,4542]},
{"City":"Cravo Norte","DBTZ":"B","Name":"Cravo Norte Airport","Country":"CO","IATA/FAA":"RAV","Longitude":null,"Airport ID":"SKCN","Latitude":null,"Timezone":424,"DST":2,"destinations":[9738,8564]},
{"City":"Wells","DBTZ":"B","Name":"Wells Municipal Airport/Harriet Field","Country":"US","IATA/FAA":"LWL","Longitude":null,"Airport ID":"KLWL","Latitude":null,"Timezone":84,"DST":9,"destinations":[2708]},
{"City":"El Encanto","DBTZ":"C","Name":"El Encanto Airport","Country":"CO","IATA/FAA":"ECO","Longitude":null,"Airport ID":null,"Latitude":null,"Timezone":349,"DST":-3,"destinations":[6394]},
{"City":"Puerto Plata","DBTZ":"B","Name":"Gregorio Luperon International Airport","Country":"DO","IATA/FAA":"POP","Longitude":null,"Airport ID":"MDPP","Latitude":null,"Timezone":842,"DST":4,"destinations":[8156]},
{"City":"Fonte Boa","DBTZ":"C","Name":"Fonte Boa Airport","Country":"BR","IATA/FAA":"FBA","Longitude":null,"Airport ID":"SWOB","Latitude":null,"Timezone":275,"DST":9,"destinations":[3149,1534]},
{"City":"Alexandria","DBTZ":"D","Name":"Chandler Field","Country":"US","IATA/FAA":"AXN","Longitude":null,"Airport ID":"KAXN","Latitude":null,"Timezone":497,"DST":-4,"destinations":[1379,9899,5522]},
{"City":"Mudgee","DBTZ":"E","Name":"Mudgee Airport","Country":"AU","IATA/FAA":"DGE","Longitude":null,"Airport ID":"YMDG","Latitude":null,"Timezone":831,"DST":1,"destinations":[9646]},
{"City":"Yangon","DBTZ":"B","Name":"Yangon International Airport","Country":"MM","IATA/FAA":"RGN","Longitude":null,"Airport ID":"VYYY","Latitude":null,"Timezone":833,"DST":8,"destinations":[6079]},
{"City":null,"DBTZ":"C","Name":"Warrawagine Airport","Country":"AU","IATA/FAA":"WRW","Longitude":null,"Airport ID":"YWWG","Latitude":null,"Timezone":897,"DST":-5,"destinations":[4187]},
{"City":null,"DBTZ":"C","Name":"Kamileroi Airport","Country":"AU","IATA/FAA":"KML","Longitude":null,"Airport ID":"YKML","Latitude":null,"Timezone":589,"DST":-1,"destinations":[863,148,5622]},
{"City":"Bokpyinn","DBTZ":"C","Name":"Bokpyinn Airport","Country":"MM","IATA/FAA":"VBP","Longitude":null,"Airport ID":"VYBP","Latitude":null,"Timezone":708,"DST":-1,"destinations":[4762,7508]},
{"City":"Guari","DBTZ":"A","Name":"Guari Airport","Country":"PG","IATA/FAA":"GUG","Longitude":null,"Airport ID":"AYGF","Latitude":null,"Timezone":118,"DST":-1,"destinations":[7758,8937,5732]},
{"City":"Gwadar","DBTZ":"C","Name":"Gwadar International Airport","Country":"PK","IATA/FAA":"GWD","Longitude":null,"Airport ID":"OPGD","Latitude":null,"Timezone":335,"DST":7,"destinations":[5559,5149,9282]},
{"City":"Apia","DBTZ":"A","Name":"Faleolo International Airport","Country":"WS","IATA/FAA":"APW","Longitude":null,"Airport ID":"NSFA","Latitude":null,"Timezone":897,"DST":8,"destinations":[1011,4164,481]},
{"City":"Sarmi-Papua Island","DBTZ":"B","Name":"Sarmi Airport","Country":"ID","IATA/FAA":"ZRM","Longitude":null,"Airport ID":"WAJI","Latitude":null,"Timezone":183,"DST":7,"destinations":[682,9565,7054]},
{"City":null,"DBTZ":"E","Name":"Nullagine Airport","Country":"AU","IATA/FAA":"NLL","Longitude":null,"Airport ID":"YNUL","Latitude":null,"Timezone":243,"DST":2,"destinations":[9437,4125,3669]},
{"City":"Rio Grande","DBTZ":"D","Name":"Rio Grande Airport","Country":"BR","IATA/FAA":"RIG","Longitude":null,"Airport ID":"SJRG","Latitude":null,"Timezone":279,"DST":5,"destinations":[518]},
{"City":null,"DBTZ":"A","Name":"Manjimup Airport","Country":"AU","IATA/FAA":"MJP","Longitude":null,"Airport ID":"YMJM","Latitude":null,"Timezone":584,"DST":-8,"destinations":[3879,3089,8406]},
{"City":"Salton City","DBTZ":"E","Name":"Salton Sea Airport","Country":"US","IATA/FAA":"SAS","Longitude":null,"Airport ID":"KSAS","Latitude":null,"Timezone":62,"DST":-5,"destinations":[5301,9908]},
{"City":"Plymouth","DBTZ":"A","Name":"Plymouth Municipal Airport","Country":"US","IATA/FAA":"PYM","Longitude":null,"Airport ID":"KPYM","Latitude":null,"Timezone":370,"DST":1,"destinations":[2176,9740]},
{"City":"Tauramena","DBTZ":"B","Name":"Tauramena Airport","Country":"CO","IATA/FAA":"TAU","Longitude":null,"Airport ID":"SKTA","Latitude":null,"Timezone":315,"DST":-8,"destinations":[3379,9443,8030]},
{"City":"South Naknek","DBTZ":"B","Name":"South Naknek Nr 2 Airport","Country":"US","IATA/FAA":"WSN","Longitude":null,"Airport ID":"PFWS","Latitude":null,"Timezone":238,"DST":-11,"destinations":[2785]},
{"City":"Fort Sill","DBTZ":"C","Name":"Henry Post Army Air Field (Fort Sill)","Country":"US","IATA/FAA":"FSI","Longitude":null,"Airport ID":"KFSI","Latitude":null,"Timezone":806,"DST":-10,"destinations":[1943,2795,8108]},
{"City":"Bradford","DBTZ":"A","Name":"Rinkenberger Restricted Landing Area","Country":"US","IATA/FAA":"BDF","Longitude":null,"Airport ID":"3IS8","Latitude":null,"Timezone":836,"DST":4,"destinations":[1459,9188]},
{"City":"Santa Monica","DBTZ":"A","Name":"Santa Monica Municipal Airport","Country":"US","IATA/FAA":"SMO","Longitude":null,"Airport ID":"KSMO","Latitude":null,"Timezone":284,"DST":-6,"destinations":[3133]},
{"City":null,"DBTZ":"B","Name":"Iffley Airport","Country":"AU","IATA/FAA":"IFF","Longitude":null,"Airport ID":"YIFY","Latitude":null,"Timezone":276,"DST":11,"destinations":[3578,8073,6232]},
{"City":"Daporijo","DBTZ":"D","Name":"Daporijo Airport","Country":"IN","IATA/FAA":"DEP","Longitude":null,"Airport ID":"VEDZ","Latitude":null,"Timezone":815,"DST":-11,"destinations":[4830]},
{"City":"Brize Norton","DBTZ":"E","Name":"RAF Brize Norton","Country":"GB","IATA/FAA":"BZZ","Longitude":null,"Airport ID":"EGVN","Latitude":null,"Timezone":278,"DST":-10,"destinations":[7993,6078,5800]},
{"City":"Vicenza","DBTZ":"B","Name":"Vicenza Airport","Country":"IT","IATA/FAA":"VIC","Longitude":null,"Airport ID":"LIPT","Latitude":null,"Timezone":861,"DST":-12,"destinations":[6385]},
{"City":"Bambu","DBTZ":"B","Name":"Bambu Airport","Country":"PG","IATA/FAA":"BCP","Longitude":null,"Airport ID":"AYBC","Latitude":null,"Timezone":868,"DST":-4,"destinations":[788,5712,7271]},
{"City":"Muscle Shoals","DBTZ":"D","Name":"Northwest Alabama Regional Airport","Country":"US","IATA/FAA":"MSL","Longitude":null,"Airport ID":"KMSL","Latitude":null,"Timezone":387,"DST":4,"destinations":[7587,7702]},
{"City":"Redding","DBTZ":"E","Name":"Benton Field","Country":"US","IATA/FAA":"BZF","Longitude":null,"Airport ID":"O85","Latitude":null,"Timezone":394,"DST":2,"destinations":[2509,8724,8166]},
{"City":"Rivera","DBTZ":"C","Name":"Presidente General Don Oscar D. Gestido International Airport","Country":"UY","IATA/FAA":"RVY","Longitude":null,"Airport ID":"SURV","Latitude":null,"Timezone":133,"DST":4,"destinations":[6924,4131,2508]},
{"City":"Gorakhpur","DBTZ":"A","Name":"Gorakhpur Airport","Country":"IN","IATA/FAA":"GOP","Longitude":null,"Airport ID":"VEGK","Latitude":null,"Timezone":702,"DST":11,"destinations":[8290,5879]},
{"City":"Defiance","DBTZ":"B","Name":"Defiance Memorial Airport","Country":"US","IATA/FAA":"DFI","Longitude":null,"Airport ID":"KDFI","Latitude":null,"Timezone":119,"DST":11,"destinations":[3449,317]},
{"City":"Shikarpur","DBTZ":"D","Name":"Shikarpur Airport","Country":"PK","IATA/FAA":"SWV","Longitude":null,"Airport ID":null,"Latitude":null,"Timezone":686,"DST":7,"destinations":[1138]},
{"City":"Kisumu","DBTZ":"E","Name":"Kisumu Airport","Country":"KE","IATA/FAA":"KIS","Longitude":null,"Airport ID":"HKKI","Latitude":null,"Timezone":667,"DST":-2,"destinations":[410,7491]},
{"City":"Block Island","DBTZ":"A","Name":"Block Island State Airport","Country":"US","IATA/FAA":"BID","Longitude":null,"Airport ID":"KBID","Latitude":null,"Timezone":700,"DST":7,"destinations":[5175]},
{"City":"Rayong","DBTZ":"D","Name":"U-Tapao International Airport","Country":"TH","IATA/FAA":"UTP","Longitude":null,"Airport ID":"VTBU","Latitude":null,"Timezone":59,"DST":-12,"destinations":[5408]},
{"City":"Vitória Da Conquista","DBTZ":"E","Name":"Vitória da Conquista Airport","Country":"BR","IATA/FAA":"VDC","Longitude":null,"Airport ID":"SBQV","Latitude":null,"Timezone":175,"DST":-9,"destinations":[4531,6314]},
{"City":"Tamworth","DBTZ":"E","Name":"Tamworth Airport","Country":"AU","IATA/FAA":"TMW","Longitude":null,"Airport ID":"YSTW","Latitude":null,"Timezone":514,"DST":10,"destinations":[48,2642,2760]},
{"City":null,"DBTZ":"D","Name":"Cowra Airport","Country":"AU","IATA/FAA":"CWT","Longitude":null,"Airport ID":"YCWR","Latitude":null,"Timezone":779,"DST":-12,"destinations":[4537,2644,8656]},
{"City":"Lilabari","DBTZ":"E","Name":"North Lakhimpur Airport","Country":"IN","IATA/FAA":"IXI","Longitude":null,"Airport ID":"VELR","Latitude":null,"Timezone":503,"DST":-9,"destinations":[5205,1770]},
{"City":null,"DBTZ":"D","Name":"Lubang Airport","Country":"PH","IATA/FAA":"LBX","Longitude":null,"Airport ID":"RPLU","Latitude":null,"Timezone":466,"DST":1,"destinations":[8771,1637,650]},
{"City":"Tver","DBTZ":"C","Name":"Migalovo Air Base","Country":"RU","IATA/FAA":"KLD","Longitude":null,"Airport ID":"UUEM","Latitude":null,"Timezone":624,"DST":-9,"destinations":[6185,5512]},
{"City":"Salisbury","DBTZ":"B","Name":"Mid-Carolina Regional Airport","Country":"US","IATA/FAA":"SRW","Longitude":null,"Airport ID":"KRUQ","Latitude":null,"Timezone":475,"DST":-12,"destinations":[4327,5210]},
{"City":"Oum Hadjer","DBTZ":"D","Name":"Oum Hadjer Airport","Country":"TD","IATA/FAA":"OUM","Longitude":null,"Airport ID":null,"Latitude":null,"Timezone":157,"DST":-12,"destinations":[2866]},
{"City":null,"DBTZ":"E","Name":"Deception Airport","Country":"CA","IATA/FAA":"YGY","Longitude":null,"Airport ID":null,"Latitude":null,"Timezone":765,"DST":-1,"destinations":[2139,7090]},
{"City":"Lusanga","DBTZ":"E","Name":"Lusanga Airport","Country":"CD","IATA/FAA":"LUS","Longitude":null,"Airport ID":"FZCE","Latitude":null,"Timezone":880,"DST":-5,"destinations":[4170,4554]},
{"City":"Tanjung Balai-Karinmunbesar Island","DBTZ":"B","Name":"Sei Bati Airport","Country":"ID","IATA/FAA":"TJB","Longitude":null,"Airport ID":"WIBT","Latitude":null,"Timezone":392,"DST":-8,"destinations":[3933]},
{"City":"Chiayi City","DBTZ":"C","Name":"Chiayi Airport","Country":"TW","IATA/FAA":"CYI","Longitude":null,"Airport ID":"RCKU","Latitude":null,"Timezone":679,"DST":4,"destinations":[4103]},
{"City":"Eagle Pass","DBTZ":"A","Name":"Maverick County Memorial International Airport","Country":"US","IATA/FAA":"EGP","Longitude":null,"Airport ID":"5T9","Latitude":null,"Timezone":736,"DST":1,"destinations":[9862]},
{"City":"Vitebsk","DBTZ":"C","Name":"Vitebsk Vostochny Airport","Country":"BY","IATA/FAA":"VTB","Longitude":null,"Airport ID":"UMII","Latitude":null,"Timezone":118,"DST":-7,"destinations":[3999]},
{"City":"Somerset","DBTZ":"A","Name":"Lake Cumberland Regional Airport","Country":"US","IATA/FAA":"SME","Longitude":null,"Airport ID":"KSME","Latitude":null,"Timezone":578,"DST":12,"destinations":[1047,2760,4439]},
{"City":"Galcaio","DBTZ":"E","Name":"Galcaio Airport","Country":"SO","IATA/FAA":"GLK","Longitude":null,"Airport ID":"HCMR","Latitude":null,"Timezone":282,"DST":-7,"destinations":[5948,2616]},
{"City":null,"DBTZ":"C","Name":"Sharurah Airport","Country":"SA","IATA/FAA":"SHW","Longitude":null,"Airport ID":"OESH","Latitude":null,"Timezone":886,"DST":-7,"destinations":[5296,8673]},
{"City":"Anggi-Papua Island","DBTZ":"E","Name":"Anggi Airport","Country":"ID","IATA/FAA":"AGD","Longitude":null,"Airport ID":"WASG","Latitude":null,"Timezone":574,"DST":-8,"destinations":[7462,4542,4355]},
{"City":"Wagny","DBTZ":"D","Name":"Wagny Airport","Country":"GA","IATA/FAA":"WGY","Longitude":null,"Airport ID":null,"Latitude":null,"Timezone":817,"DST":-4,"destinations":[4600,5693]},
{"City":"Stewart","DBTZ":"E","Name":"Stewart Airport","Country":"CA","IATA/FAA":"ZST","Longitude":null,"Airport ID":"CZST","Latitude":null,"Timezone":542,"DST":-5,"destinations":[1753]},
{"City":"Indore","DBTZ":"B","Name":"Devi Ahilyabai Holkar Airport","Country":"IN","IATA/FAA":"IDR","Longitude":null,"Airport ID":"VAID","Latitude":null,"Timezone":134,"DST":-10,"destinations":[970,5110]},
{"City":"Oklahoma City","DBTZ":"E","Name":"Downtown Airpark","Country":"US","IATA/FAA":"DWN","Longitude":null,"Airport ID":null,"Latitude":null,"Timezone":66,"DST":-5,"destinations":[2360,8124]},
{"City":"Bhagatanwala","DBTZ":"B","Name":"Bhagatanwala Airport","Country":"PK","IATA/FAA":"BHW","Longitude":null,"Airport ID":"OPBG","Latitude":null,"Timezone":416,"DST":-10,"destinations":[6910,7616]},
{"City":"Huvadhu Atoll","DBTZ":"B","Name":"Kaadedhdhoo Airport","Country":"MV","IATA/FAA":"KDM","Longitude":null,"Airport ID":"VRMT","Latitude":null,"Timezone":480,"DST":4,"destinations":[4890,1464]},
{"City":"Lago Agrio","DBTZ":"A","Name":"Nueva Loja Airport","Country":"EC","IATA/FAA":"LGQ","Longitude":null,"Airport ID":"SENL","Latitude":null,"Timezone":764,"DST":-11,"destinations":[4877,750]},
{"City":"Taisha","DBTZ":"C","Name":"Taisha Airport","Country":"EC","IATA/FAA":"TSC","Longitude":null,"Airport ID":"SETH","Latitude":null,"Timezone":907,"DST":-12,"destinations":[1638,41]},
{"City":"Lisbon","DBTZ":"C","Name":"Humberto Delgado Airport (Lisbon Portela Airport)","Country":"PT","IATA/FAA":"LIS","Longitude":null,"Airport ID":"LPPT","Latitude":null,"Timezone":386,"DST":4,"destinations":[6974,4352,553]},
{"City":"Akureyri","DBTZ":"D","Name":"Akureyri Airport","Country":"IS","IATA/FAA":"AEY","Longitude":null,"Airport ID":"BIAR","Latitude":null,"Timezone":574,"DST":-10,"destinations":[3247]},
{"City":"Bellaire","DBTZ":"B","Name":"Antrim County Airport","Country":"US","IATA/FAA":"ACB","Longitude":null,"Airport ID":"KACB","Latitude":null,"Timezone":752,"DST":-10,"destinations":[6999,4290,7193]},
{"City":"Mbarara","DBTZ":"C","Name":"Mbarara Airport","Country":"UG","IATA/FAA":"MBQ","Longitude":null,"Airport ID":"HUMA","Latitude":null,"Timezone":338,"DST":8,"destinations":[1216,4148,1798]},
{"City":"Lyndonville","DBTZ":"D","Name":"Caledonia County Airport","Country":"US","IATA/FAA":"LLX","Longitude":null,"Airport ID":"KCDA","Latitude":null,"Timezone":193,"DST":-4,"destinations":[88,6165,9818]},
{"City":"Harrismith","DBTZ":"D","Name":"Harrismith Airport","Country":"ZA","IATA/FAA":"HRS","Longitude":null,"Airport ID":"FAHR","Latitude":null,"Timezone":454,"DST":4,"destinations":[2629,7981]},
{"City":"Kuopio / Siilinjärvi","DBTZ":"D","Name":"Kuopio Airport","Country":"FI","IATA/FAA":"KUO","Longitude":null,"Airport ID":"EFKU","Latitude":null,"Timezone":117,"DST":2,"destinations":[286,4005]},
{"City":"N'dolo","DBTZ":"B","Name":"Ndolo Airport","Country":"CD","IATA/FAA":"NLO","Longitude":null,"Airport ID":"FZAB","Latitude":null,"Timezone":500,"DST":-7,"destinations":[3454,7225]},
{"City":"Jagdalpur","DBTZ":"A","Name":"Jagdalpur Airport","Country":"IN","IATA/FAA":"JGB","Longitude":null,"Airport ID":null,"Latitude":null,"Timezone":189,"DST":-11,"destinations":[6629]},
{"City":"Mombaça","DBTZ":"A","Name":"Mombaça Airport","Country":"BR","IATA/FAA":"0","Longitude":null,"Airport ID":"SNMB","Latitude":null,"Timezone":433,"DST":-9,"destinations":[9976]},
{"City":"Vava'u Island","DBTZ":"A","Name":"Vava'u International Airport","Country":"TO","IATA/FAA":"VAV","Longitude":null,"Airport ID":"NFTV","Latitude":null,"Timezone":876,"DST":1,"destinations":[7302,3850,1305]},
{"City":"Ras Al Khaimah","DBTZ":"C","Name":"Ras Al Khaimah International Airport","Country":"AE","IATA/FAA":"RKT","Longitude":null,"Airport ID":"OMRK","Latitude":null,"Timezone":996,"DST":8,"destinations":[800,4736,9617]},
{"City":"Apiay","DBTZ":"C","Name":"Gomez Nino Apiay Air Base","Country":"CO","IATA/FAA":"API","Longitude":null,"Airport ID":"SKAP","Latitude":null,"Timezone":951,"DST":1,"destinations":[6792,9450,3754]},
{"City":"Marshall","DBTZ":"C","Name":"Southwest Minnesota Regional Airport - Marshall/Ryan Field","Country":"US","IATA/FAA":"MML","Longitude":null,"Airport ID":"KMML","Latitude":null,"Timezone":226,"DST":-3,"destinations":[8058,9048,9166]},
{"City":"Mzuzu","DBTZ":"C","Name":"Mzuzu Airport","Country":"MW","IATA/FAA":"ZZU","Longitude":null,"Airport ID":"FWUU","Latitude":null,"Timezone":601,"DST":9,"destinations":[8031,2193,2444]},
{"City":null,"DBTZ":"D","Name":"Georgetown (Tas) Airport","Country":"AU","IATA/FAA":"GEE","Longitude":null,"Airport ID":"YGTO","Latitude":null,"Timezone":535,"DST":3,"destinations":[8683,9514]},
{"City":"Magda","DBTZ":"A","Name":"Fazenda São Francisco Airport","Country":"BR","IATA/FAA":"0","Longitude":null,"Airport ID":"SNQP","Latitude":null,"Timezone":992,"DST":-9,"destinations":[6952,3794,4309]},
{"City":"Cotulla","DBTZ":"D","Name":"Cotulla-La Salle County Airport","Country":"US","IATA/FAA":"COT","Longitude":null,"Airport ID":"KCOT","Latitude":null,"Timezone":186,"DST":5,"destinations":[4254]},
{"City":"Nukus","DBTZ":"C","Name":"Nukus Airport","Country":"UZ","IATA/FAA":"NCU","Longitude":null,"Airport ID":"UTNN","Latitude":null,"Timezone":867,"DST":9,"destinations":[338]},
{"City":"Courtenay","DBTZ":"A","Name":"Courtenay Airpark","Country":"CA","IATA/FAA":"YCA","Longitude":null,"Airport ID":"CAH3","Latitude":null,"Timezone":771,"DST":-4,"destinations":[6515]},
{"City":"Erandique","DBTZ":"A","Name":"Erandique Airport","Country":"HN","IATA/FAA":"EDQ","Longitude":null,"Airport ID":"MHGU","Latitude":null,"Timezone":495,"DST":-1,"destinations":[230]},
{"City":"Gabbs","DBTZ":"A","Name":"Gabbs Airport","Country":"US","IATA/FAA":"GAB","Longitude":null,"Airport ID":"KGAB","Latitude":null,"Timezone":835,"DST":12,"destinations":[8133]},
{"City":"Roundup","DBTZ":"D","Name":"Roundup Airport","Country":"US","IATA/FAA":"RPX","Longitude":null,"Airport ID":"KRPX","Latitude":null,"Timezone":605,"DST":5,"destinations":[2473,8579]},
{"City":"Cartwright","DBTZ":"C","Name":"Cartwright Airport","Country":"CA","IATA/FAA":"YRF","Longitude":null,"Airport ID":"CYCA","Latitude":null,"Timezone":36,"DST":0,"destinations":[2782]},
{"City":"Santa María","DBTZ":"B","Name":"Santa Maria Airport","Country":"PE","IATA/FAA":"SMG","Longitude":null,"Airport ID":"SPMR","Latitude":null,"Timezone":953,"DST":-9,"destinations":[6329,8367]},
{"City":"Sikasso","DBTZ":"B","Name":"Sikasso Airport","Country":"ML","IATA/FAA":"KSS","Longitude":null,"Airport ID":"GASK","Latitude":null,"Timezone":68,"DST":12,"destinations":[4011,2762,7928]},
{"City":"Tlokoeng","DBTZ":"B","Name":"Tlokoeng Airport","Country":"LS","IATA/FAA":"TKO","Longitude":null,"Airport ID":"FXTK","Latitude":null,"Timezone":621,"DST":-12,"destinations":[882,3057]},
{"City":"Örnsköldsvik","DBTZ":"D","Name":"Örnsköldsvik Airport","Country":"SE","IATA/FAA":"OER","Longitude":null,"Airport ID":"ESNO","Latitude":null,"Timezone":517,"DST":-9,"destinations":[1495]},
{"City":"Fort Hunter Ligget Jolon","DBTZ":"A","Name":"Tusi AHP (Hunter Liggett) Heliport","Country":"US","IATA/FAA":"HGT","Longitude":null,"Airport ID":"KHGT","Latitude":null,"Timezone":904,"DST":6,"destinations":[3992,9545]},
{"City":"Chile Chico","DBTZ":"C","Name":"Chile Chico Airport","Country":"CL","IATA/FAA":"CCH","Longitude":null,"Airport ID":"SCCC","Latitude":null,"Timezone":169,"DST":1,"destinations":[9878,1478]},
{"City":null,"DBTZ":"D","Name":"Baoshan Yunduan Airport","Country":"CN","IATA/FAA":"BSD","Longitude":null,"Airport ID":"ZPBS","Latitude":null,"Timezone":517,"DST":-5,"destinations":[5030,713]},
{"City":"Meyers Chuck","DBTZ":"E","Name":"Meyers Chuck Seaplane Base","Country":"US","IATA/FAA":"WMK","Longitude":null,"Airport ID":"84K","Latitude":null,"Timezone":135,"DST":-9,"destinations":[6188]},
{"City":"Cabo Rojo","DBTZ":"A","Name":"Cabo Rojo Airport","Country":"DO","IATA/FAA":"CBJ","Longitude":null,"Airport ID":"MDCR","Latitude":null,"Timezone":606,"DST":10,"destinations":[6872,998]},
{"City":"La Seu d'Urgell Pyrenees and Andorra","DBTZ":"D","Name":"Pirineus - la Seu d'Urgel Airport","Country":"ES","IATA/FAA":"LEU","Longitude":null,"Airport ID":"LESU","Latitude":null,"Timezone":784,"DST":-11,"destinations":[5686,3268,2630]},
{"City":"Geiteryggen","DBTZ":"C","Name":"Skien Airport","Country":"NO","IATA/FAA":"SKE","Longitude":null,"Airport ID":"ENSN","Latitude":null,"Timezone":160,"DST":-11,"destinations":[1593,6815,599]},
{"City":"Elazığ","DBTZ":"D","Name":"Elazığ Airport","Country":"TR","IATA/FAA":"EZS","Longitude":null,"Airport ID":"LTCA","Latitude":null,"Timezone":853,"DST":-1,"destinations":[2984]},
{"City":"Willcox","DBTZ":"A","Name":"Cochise County Airport","Country":"US","IATA/FAA":"CWX","Longitude":null,"Airport ID":"P33","Latitude":null,"Timezone":59,"DST":7,"destinations":[5893,2811,6538]},
{"City":"Manaung","DBTZ":"C","Name":"Manaung Airport","Country":"MM","IATA/FAA":"MGU","Longitude":null,"Airport ID":"VYMN","Latitude":null,"Timezone":683,"DST":10,"destinations":[9496]},
{"City":"Welshpool","DBTZ":"B","Name":"Welshpool Airport","Country":"AU","IATA/FAA":"WHL","Longitude":null,"Airport ID":null,"Latitude":null,"Timezone":624,"DST":2,"destinations":[7315,1347]},
{"City":"Banana","DBTZ":"B","Name":"Cassidy International Airport","Country":"KI","IATA/FAA":"CXI","Longitude":null,"Airport ID":"PLCH","Latitude":null,"Timezone":522,"DST":-8,"destinations":[1918]},
{"City":"Fairmont Hot Springs","DBTZ":"B","Name":"Fairmont Hot Springs Airport","Country":"CA","IATA/FAA":"YCZ","Longitude":null,"Airport ID":"CYCZ","Latitude":null,"Timezone":285,"DST":2,"destinations":[6562,4723,9548]},
{"City":"Dera Ghazi Khan","DBTZ":"B","Name":"Dera Ghazi Khan Airport","Country":"PK","IATA/FAA":"DEA","Longitude":null,"Airport ID":"OPDG","Latitude":null,"Timezone":575,"DST":8,"destinations":[2577,405,7786]},
{"City":"Erzincan","DBTZ":"E","Name":"Erzincan Airport","Country":"TR","IATA/FAA":"ERC","Longitude":null,"Airport ID":"LTCD","Latitude":null,"Timezone":766,"DST":6,"destinations":[6219]},
{"City":"Pratas Island","DBTZ":"B","Name":"Dongsha Island Airport","Country":"TW","IATA/FAA":"DSX","Longitude":null,"Airport ID":"RCLM","Latitude":null,"Timezone":612,"DST":4,"destinations":[3420,7974,5063]},
{"City":"Milingimbi Island","DBTZ":"B","Name":"Milingimbi Airport","Country":"AU","IATA/FAA":"MGT","Longitude":null,"Airport ID":"YMGB","Latitude":null,"Timezone":789,"DST":-3,"destinations":[4164,9676]},
{"City":"Chehalis","DBTZ":"B","Name":"Chehalis Centralia Airport","Country":"US","IATA/FAA":"CLS","Longitude":null,"Airport ID":"KCLS","Latitude":null,"Timezone":321,"DST":-10,"destinations":[6382,4023]},
{"City":"Lidköping","DBTZ":"A","Name":"Lidköping-Hovby Airport","Country":"SE","IATA/FAA":"LDK","Longitude":null,"Airport ID":"ESGL","Latitude":null,"Timezone":969,"DST":-3,"destinations":[1305,4875]},
{"City":"Kapanga","DBTZ":"D","Name":"Kapanga Airport","Country":"CD","IATA/FAA":"KAP","Longitude":null,"Airport ID":"FZSK","Latitude":null,"Timezone":933,"DST":-1,"destinations":[4142,3028,9500]},
{"City":"Kabul","DBTZ":"C","Name":"Hamid Karzai International Airport","Country":"AF","IATA/FAA":"KBL","Longitude":null,"Airport ID":"OAKB","Latitude":null,"Timezone":862,"DST":-11,"destinations":[9291,3902,3490]},
{"City":"Madurai","DBTZ":"A","Name":"Madurai Airport","Country":"IN","IATA/FAA":"IXM","Longitude":null,"Airport ID":"VOMD","Latitude":null,"Timezone":851,"DST":3,"destinations":[2514,5852,5299]},
{"City":"Pimenta Bueno","DBTZ":"D","Name":"Pimenta Bueno Airport","Country":"BR","IATA/FAA":"PBQ","Longitude":null,"Airport ID":"SWPM","Latitude":null,"Timezone":763,"DST":2,"destinations":[3419,9131,7897]},
{"City":null,"DBTZ":"D","Name":"Yapsiei Airport","Country":"PG","IATA/FAA":"KPE","Longitude":null,"Airport ID":"AYYP","Latitude":null,"Timezone":724,"DST":-4,"destinations":[9627,3662]},
{"City":"Qingyang","DBTZ":"A","Name":"Qingyang Airport","Country":"CN","IATA/FAA":"IQN","Longitude":null,"Airport ID":"ZLQY","Latitude":null,"Timezone":675,"DST":4,"destinations":[6131,1905,5723]},
{"City":"Benghazi","DBTZ":"A","Name":"Benina International Airport","Country":"LY","IATA/FAA":"BEN","Longitude":null,"Airport ID":"HLLB","Latitude":null,"Timezone":895,"DST":-10,"destinations":[1419,3017]},
{"City":"Pitalito","DBTZ":"A","Name":"Pitalito Airport","Country":"CO","IATA/FAA":"PTX","Longitude":null,"Airport ID":"SKPI","Latitude":null,"Timezone":288,"DST":-12,"destinations":[8618]},
{"City":"Anjo Peninsula","DBTZ":"B","Name":"Truscott-Mungalalu Airport","Country":"AU","IATA/FAA":"TTX","Longitude":null,"Airport ID":"YTST","Latitude":null,"Timezone":882,"DST":-5,"destinations":[8709,5457]},
{"City":"Nanuya Levu Island","DBTZ":"D","Name":"Turtle Island Seaplane Base","Country":"FJ","IATA/FAA":"TTL","Longitude":null,"Airport ID":"NFUL","Latitude":null,"Timezone":379,"DST":2,"destinations":[822,7972]},
{"City":"Hasvik","DBTZ":"C","Name":"Hasvik Airport","Country":"NO","IATA/FAA":"HAA","Longitude":null,"Airport ID":"ENHK","Latitude":null,"Timezone":435,"DST":-6,"destinations":[4225,7785]},
{"City":"Enniskillen","DBTZ":"A","Name":"St Angelo Airport","Country":"GB","IATA/FAA":"ENK","Longitude":null,"Airport ID":"EGAB","Latitude":null,"Timezone":763,"DST":-2,"destinations":[6961,9806]},
{"City":"Manguna","DBTZ":"E","Name":"Manguna Airport","Country":"PG","IATA/FAA":"MFO","Longitude":null,"Airport ID":"AYNG","Latitude":null,"Timezone":805,"DST":-8,"destinations":[2416,4759]},
{"City":"Warton","DBTZ":"A","Name":"Warton Airport","Country":"GB","IATA/FAA":"WRT","Longitude":null,"Airport ID":"EGNO","Latitude":null,"Timezone":779,"DST":-2,"destinations":[6708,3821,4189]},
{"City":"Gounda","DBTZ":"E","Name":"Gounda Airport","Country":"CF","IATA/FAA":"GDA","Longitude":null,"Airport ID":null,"Latitude":null,"Timezone":62,"DST":9,"destinations":[407,9928]},
{"City":"Ringi Cove","DBTZ":"D","Name":"Ringi Cove Airport","Country":"SB","IATA/FAA":"RIN","Longitude":null,"Airport ID":"AGRC","Latitude":null,"Timezone":893,"DST":4,"destinations":[6506]},
{"City":"Chittagong","DBTZ":"D","Name":"Shah Amanat International Airport","Country":"BD","IATA/FAA":"CGP","Longitude":null,"Airport ID":"VGEG","Latitude":null,"Timezone":687,"DST":11,"destinations":[6764]},
{"City":"Doncaster","DBTZ":"A","Name":"Robin Hood Doncaster Sheffield Airport","Country":"GB","IATA/FAA":"DSA","Longitude":null,"Airport ID":"EGCN","Latitude":null,"Timezone":149,"DST":10,"destinations":[4985,4240,9888]},
{"City":"Aomori","DBTZ":"B","Name":"Aomori Airport","Country":"JP","IATA/FAA":"AOJ","Longitude":null,"Airport ID":"RJSA","Latitude":null,"Timezone":539,"DST":9,"destinations":[3736,2691]},
{"City":"Paratebueno","DBTZ":"C","Name":"Paratebueno Airport","Country":"CO","IATA/FAA":"EUO","Longitude":null,"Airport ID":null,"Latitude":null,"Timezone":80,"DST":4,"destinations":[2172,7087,9948]},
{"City":null,"DBTZ":"C","Name":"Sirri Island Airport","Country":"IR","IATA/FAA":"SXI","Longitude":null,"Airport ID":"OIBS","Latitude":null,"Timezone":955,"DST":-5,"destinations":[4715,2018]},
{"City":"Amritsar","DBTZ":"C","Name":"Sri Guru Ram Dass Jee International Airport","Country":"IN","IATA/FAA":"ATQ","Longitude":null,"Airport ID":"VIAR","Latitude":null,"Timezone":877,"DST":-5,"destinations":[9102,9042]},
{"City":"Pathein","DBTZ":"D","Name":"Pathein Airport","Country":"MM","IATA/FAA":"BSX","Longitude":null,"Airport ID":"VYPN","Latitude":null,"Timezone":160,"DST":-12,"destinations":[5156,4659]},
{"City":"Videira","DBTZ":"E","Name":"Videira Airport","Country":"BR","IATA/FAA":"VIA","Longitude":null,"Airport ID":"SSVI","Latitude":null,"Timezone":358,"DST":1,"destinations":[3505]},
{"City":"Needles","DBTZ":"D","Name":"Needles Airport","Country":"US","IATA/FAA":"EED","Longitude":null,"Airport ID":"KEED","Latitude":null,"Timezone":933,"DST":0,"destinations":[516,2449]},
{"City":"Xi'an","DBTZ":"E","Name":"Xi'an Xianyang International Airport","Country":"CN","IATA/FAA":"XIY","Longitude":null,"Airport ID":"ZLXY","Latitude":null,"Timezone":763,"DST":9,"destinations":[2780]},
{"City":"Kelowna","DBTZ":"A","Name":"Kelowna International Airport","Country":"CA","IATA/FAA":"YLW","Longitude":null,"Airport ID":"CYLW","Latitude":null,"Timezone":613,"DST":-11,"destinations":[9764]},
{"City":"Taiyuan","DBTZ":"B","Name":"Taiyuan Wusu Airport","Country":"CN","IATA/FAA":"TYN","Longitude":null,"Airport ID":"ZBYN","Latitude":null,"Timezone":320,"DST":2,"destinations":[366]},
{"City":"Sipitang","DBTZ":"D","Name":"Sipitang Airport","Country":"MY","IATA/FAA":"SPT","Longitude":null,"Airport ID":null,"Latitude":null,"Timezone":622,"DST":-2,"destinations":[630,3021]},
{"City":"Hluhluwe","DBTZ":"E","Name":"Hluhluwe Airport","Country":"ZA","IATA/FAA":"HLW","Longitude":null,"Airport ID":"FAHL","Latitude":null,"Timezone":920,"DST":3,"destinations":[9465]},
{"City":"Monkey Mountain","DBTZ":"E","Name":"Monkey Mountain Airport","Country":"GY","IATA/FAA":"MYM","Longitude":null,"Airport ID":"SYMM","Latitude":null,"Timezone":53,"DST":-12,"destinations":[8636]},
{"City":null,"DBTZ":"D","Name":"Monclova International Airport","Country":"MX","IATA/FAA":"LOV","Longitude":null,"Airport ID":"MMMV","Latitude":null,"Timezone":846,"DST":11,"destinations":[9776,4160]},
{"City":"Plymouth","DBTZ":"B","Name":"Plymouth Municipal Airport","Country":"US","IATA/FAA":"PYM","Longitude":null,"Airport ID":"KPYM","Latitude":null,"Timezone":65,"DST":-10,"destinations":[5746,7382,9327]},
{"City":"Playón Chico","DBTZ":"B","Name":"Playón Chico Airport","Country":"PA","IATA/FAA":"PYC","Longitude":null,"Airport ID":null,"Latitude":null,"Timezone":884,"DST":0,"destinations":[3041]},
{"City":"Simikot","DBTZ":"B","Name":"Simikot Airport","Country":"NP","IATA/FAA":"IMK","Longitude":null,"Airport ID":"VNST","Latitude":null,"Timezone":396,"DST":-7,"destinations":[7794,8107,7936]},
{"City":"Perm","DBTZ":"B","Name":"Bolshoye Savino Airport","Country":"RU","IATA/FAA":"PEE","Longitude":null,"Airport ID":"USPP","Latitude":null,"Timezone":420,"DST":-9,"destinations":[7865,5629,1356]},
{"City":"Rzeszów","DBTZ":"E","Name":"Rzeszów-Jasionka Airport","Country":"PL","IATA/FAA":"RZE","Longitude":null,"Airport ID":"EPRZ","Latitude":null,"Timezone":833,"DST":-9,"destinations":[527,8767]},
{"City":"Gurupi","DBTZ":"D","Name":"Gurupi Airport","Country":"BR","IATA/FAA":"GRP","Longitude":null,"Airport ID":"SWGI","Latitude":null,"Timezone":925,"DST":11,"destinations":[3827,6056]},
{"City":"Alajero, La Gomera Island","DBTZ":"D","Name":"La Gomera Airport","Country":"ES","IATA/FAA":"GMZ","Longitude":null,"Airport ID":"GCGM","Latitude":null,"Timezone":196,"DST":9,"destinations":[9717,5615]},
{"City":"Humaitá","DBTZ":"C","Name":"Humaitá Airport","Country":"BR","IATA/FAA":"HUW","Longitude":null,"Airport ID":"SWHT","Latitude":null,"Timezone":292,"DST":-9,"destinations":[1656,2301]},
{"City":"Egegik","DBTZ":"A","Name":"Egegik Airport","Country":"US","IATA/FAA":"EGX","Longitude":null,"Airport ID":"PAII","Latitude":null,"Timezone":540,"DST":-1,"destinations":[9407,29,6460]},
{"City":"Annapolis","DBTZ":"D","Name":"Lee Airport","Country":"US","IATA/FAA":"ANP","Longitude":null,"Airport ID":"KANP","Latitude":null,"Timezone":867,"DST":1,"destinations":[9620,8771]},
{"City":"Corvallis","DBTZ":"E","Name":"Corvallis Municipal Airport","Country":"US","IATA/FAA":"CVO","Longitude":null,"Airport ID":"KCVO","Latitude":null,"Timezone":204,"DST":12,"destinations":[3539,7817,7352]},
{"City":"Wallis Island","DBTZ":"E","Name":"Hihifo Airport","Country":"WF","IATA/FAA":"WLS","Longitude":null,"Airport ID":"NLWW","Latitude":null,"Timezone":579,"DST":-7,"destinations":[9021,5118,939]},
{"City":"Astoria","DBTZ":"A","Name":"Astoria Regional Airport","Country":"US","IATA/FAA":"AST","Longitude":null,"Airport ID":"KAST","Latitude":null,"Timezone":485,"DST":-6,"destinations":[7213]},
{"City":"Cold Lake","DBTZ":"E","Name":"CFB Cold Lake","Country":"CA","IATA/FAA":"YOD","Longitude":null,"Airport ID":"CYOD","Latitude":null,"Timezone":196,"DST":-6,"destinations":[1964]},
{"City":"Apalachicola","DBTZ":"E","Name":"Apalachicola Regional Airport","Country":"US","IATA/FAA":"AAF","Longitude":null,"Airport ID":"KAAF","Latitude":null,"Timezone":139,"DST":-8,"destinations":[6154,97,9153]},
{"City":"Unalaska","DBTZ":"E","Name":"Unalaska Airport","Country":"US","IATA/FAA":"DUT","Longitude":null,"Airport ID":"PADU","Latitude":null,"Timezone":99,"DST":1,"destinations":[3765]},
{"City":"Alajero, La Gomera Island","DBTZ":"D","Name":"La Gomera Airport","Country":"ES","IATA/FAA":"GMZ","Longitude":null,"Airport ID":"GCGM","Latitude":null,"Timezone":810,"DST":1,"destinations":[7216,6305,6841]},
{"City":"Nantes","DBTZ":"C","Name":"Nantes Atlantique Airport","Country":"FR","IATA/FAA":"NTE","Longitude":null,"Airport ID":"LFRS","Latitude":null,"Timezone":633,"DST":4,"destinations":[9678,779,811]},
{"City":"Najaf","DBTZ":"B","Name":"Al Najaf International Airport","Country":"IQ","IATA/FAA":"NJF","Longitude":null,"Airport ID":"ORNI","Latitude":null,"Timezone":80,"DST":-8,"destinations":[5230,21,5558]},
{"City":"Durazno","DBTZ":"B","Name":"Santa Bernardina International Airport","Country":"UY","IATA/FAA":"DZO","Longitude":null,"Airport ID":"SUDU","Latitude":null,"Timezone":675,"DST":6,"destinations":[3798,1772]},
{"City":null,"DBTZ":"A","Name":"Wiluna Airport","Country":"AU","IATA/FAA":"WUN","Longitude":null,"Airport ID":"YWLU","Latitude":null,"Timezone":445,"DST":11,"destinations":[2016,2022,5003]},
{"City":"Sainyabuli","DBTZ":"B","Name":"Sayaboury Airport","Country":"LA","IATA/FAA":"ZBY","Longitude":null,"Airport ID":"VLSB","Latitude":null,"Timezone":814,"DST":-11,"destinations":[7167,7788,7435]},
{"City":"Batesville","DBTZ":"B","Name":"Batesville Regional Airport","Country":"US","IATA/FAA":"BVX","Longitude":null,"Airport ID":"KBVX","Latitude":null,"Timezone":93,"DST":-8,"destinations":[4553,2032,8159]},
{"City":"Rokot-Sumatra Island","DBTZ":"E","Name":"Rokot Airport","Country":"ID","IATA/FAA":"RKI","Longitude":null,"Airport ID":null,"Latitude":null,"Timezone":915,"DST":3,"destinations":[547]},
{"City":"Pelaneng","DBTZ":"A","Name":"Pelaneng Airport","Country":"LS","IATA/FAA":"PEL","Longitude":null,"Airport ID":"FXPG","Latitude":null,"Timezone":66,"DST":8,"destinations":[182,3814]},
{"City":"Armenia","DBTZ":"B","Name":"Puerto Nare Airport","Country":"CO","IATA/FAA":"NAR","Longitude":null,"Airport ID":"SKPN","Latitude":null,"Timezone":887,"DST":10,"destinations":[4487,781,696]},
{"City":"Guemar","DBTZ":"E","Name":"Guemar Airport","Country":"DZ","IATA/FAA":"ELU","Longitude":null,"Airport ID":"DAUO","Latitude":null,"Timezone":478,"DST":3,"destinations":[7508,7527]},
{"City":"Roxas City","DBTZ":"E","Name":"Roxas Airport","Country":"PH","IATA/FAA":"RXS","Longitude":null,"Airport ID":"RPVR","Latitude":null,"Timezone":205,"DST":10,"destinations":[2249,1176]},
{"City":null,"DBTZ":"A","Name":"Brewarrina Airport","Country":"AU","IATA/FAA":"BWQ","Longitude":null,"Airport ID":"YBRW","Latitude":null,"Timezone":419,"DST":-10,"destinations":[291,7479]},
{"City":"Rosella Plains","DBTZ":"C","Name":"Rosella Plains Airport","Country":"AU","IATA/FAA":"RLP","Longitude":null,"Airport ID":null,"Latitude":null,"Timezone":721,"DST":-1,"destinations":[7857,1961]},
{"City":"Anshun","DBTZ":"B","Name":"Anshun Huangguoshu Airport","Country":"CN","IATA/FAA":"AVA","Longitude":null,"Airport ID":"ZUAS","Latitude":null,"Timezone":692,"DST":-3,"destinations":[8304]},
{"City":"Lyndhurst","DBTZ":"C","Name":"Lyndhurst Airport","Country":"AU","IATA/FAA":"LTP","Longitude":null,"Airport ID":"YLHS","Latitude":null,"Timezone":472,"DST":1,"destinations":[6081]},
{"City":"Artesia","DBTZ":"D","Name":"Artesia Municipal Airport","Country":"US","IATA/FAA":"ATS","Longitude":null,"Airport ID":"KATS","Latitude":null,"Timezone":741,"DST":-1,"destinations":[1655]},
{"City":"Gökçeada","DBTZ":"D","Name":"Imroz Airport","Country":"TR","IATA/FAA":"GKD","Longitude":null,"Airport ID":"LTFK","Latitude":null,"Timezone":776,"DST":2,"destinations":[3498]},
{"City":"Aguaclara","DBTZ":"E","Name":"Aguaclara Airport","Country":"CO","IATA/FAA":"ACL","Longitude":null,"Airport ID":null,"Latitude":null,"Timezone":785,"DST":0,"destinations":[2741]},
{"City":"Nondalton","DBTZ":"A","Name":"Nondalton Airport","Country":"US","IATA/FAA":"NNL","Longitude":null,"Airport ID":"PANO","Latitude":null,"Timezone":496,"DST":-10,"destinations":[7329,8271]},
{"City":"Narsarsuaq","DBTZ":"C","Name":"Narsarsuaq Airport","Country":"GL","IATA/FAA":"UAK","Longitude":null,"Airport ID":"BGBW","Latitude":null,"Timezone":516,"DST":12,"destinations":[234,5142]},
{"City":"Gonghang-ro (Mokpo)","DBTZ":"A","Name":"Mokpo Airport","Country":"KR","IATA/FAA":"MPK","Longitude":null,"Airport ID":"RKJM","Latitude":null,"Timezone":84,"DST":-6,"destinations":[8741]},
{"City":"Puerto Deseado","DBTZ":"E","Name":"Puerto Deseado Airport","Country":"AR","IATA/FAA":"PUD","Longitude":null,"Airport ID":"SAWD","Latitude":null,"Timezone":892,"DST":3,"destinations":[8396]},
{"City":"Pottuvil","DBTZ":"D","Name":"Arugam Bay SPB","Country":"LK","IATA/FAA":"AYY","Longitude":null,"Airport ID":null,"Latitude":null,"Timezone":176,"DST":-11,"destinations":[3849,5240,7138]},
{"City":"Urengoy","DBTZ":"D","Name":"Urengoy Airport","Country":"RU","IATA/FAA":"UEN","Longitude":null,"Airport ID":"USDU","Latitude":null,"Timezone":641,"DST":6,"destinations":[7920]},
{"City":"Colombo","DBTZ":"B","Name":"Beira Lake Seaplane Base","Country":"LK","IATA/FAA":"BYV","Longitude":null,"Airport ID":null,"Latitude":null,"Timezone":142,"DST":-7,"destinations":[1534]},
{"City":"Puerto Putumayo","DBTZ":"D","Name":"Putumayo Airport","Country":"EC","IATA/FAA":"PYO","Longitude":null,"Airport ID":"SEPT","Latitude":null,"Timezone":129,"DST":10,"destinations":[9895,610,9693]},
{"City":"Jackson","DBTZ":"B","Name":"Hawkins Field","Country":"US","IATA/FAA":"HKS","Longitude":null,"Airport ID":"KHKS","Latitude":null,"Timezone":160,"DST":-9,"destinations":[1784]},
{"City":"Culver City","DBTZ":"B","Name":"Hughes Airport","Country":"US","IATA/FAA":"CVR","Longitude":null,"Airport ID":null,"Latitude":null,"Timezone":653,"DST":-8,"destinations":[9465,4468]},
{"City":"Salerno","DBTZ":"E","Name":"Salerno Costa d'Amalfi Airport","Country":"IT","IATA/FAA":"QSR","Longitude":null,"Airport ID":"LIRI","Latitude":null,"Timezone":272,"DST":-11,"destinations":[8141,488]},
{"City":"Chicago/Rockford","DBTZ":"C","Name":"Chicago Rockford International Airport","Country":"US","IATA/FAA":"RFD","Longitude":null,"Airport ID":"KRFD","Latitude":null,"Timezone":786,"DST":6,"destinations":[2301,9072]},
{"City":"Sheboygan","DBTZ":"D","Name":"Sheboygan County Memorial Airport","Country":"US","IATA/FAA":"SBM","Longitude":null,"Airport ID":"KSBM","Latitude":null,"Timezone":803,"DST":0,"destinations":[4711]},
{"City":"Apiay","DBTZ":"C","Name":"Gomez Nino Apiay Air Base","Country":"CO","IATA/FAA":"API","Longitude":null,"Airport ID":"SKAP","Latitude":null,"Timezone":590,"DST":5,"destinations":[3769]},
{"City":"Newcastle","DBTZ":"D","Name":"Newcastle Airport","Country":"GB","IATA/FAA":"NCL","Longitude":null,"Airport ID":"EGNT","Latitude":null,"Timezone":616,"DST":-10,"destinations":[4041]},
{"City":"Bajawa","DBTZ":"E","Name":"Bajawa Soa Airport","Country":"ID","IATA/FAA":"BJW","Longitude":null,"Airport ID":"WATB","Latitude":null,"Timezone":889,"DST":6,"destinations":[7571,9934,4212]},
{"City":"Longnan","DBTZ":"E","Name":"Longnan Chengzhou Airport","Country":"CN","IATA/FAA":"LNL","Longitude":null,"Airport ID":"ZLLN","Latitude":null,"Timezone":760,"DST":-2,"destinations":[8601,9824]},
{"City":"Sulphur Springs","DBTZ":"B","Name":"Sulphur Springs Municipal Airport","Country":"US","IATA/FAA":"SLR","Longitude":null,"Airport ID":"KSLR","Latitude":null,"Timezone":421,"DST":-4,"destinations":[1978,6987]},
{"City":"Mountain","DBTZ":"E","Name":"Mountain Airport","Country":"NP","IATA/FAA":"MWP","Longitude":null,"Airport ID":null,"Latitude":null,"Timezone":0,"DST":-1,"destinations":[5350]},
{"City":"Velikiye Luki","DBTZ":"D","Name":"Velikiye Luki Airport","Country":"RU","IATA/FAA":"VLU","Longitude":null,"Airport ID":"ULOL","Latitude":null,"Timezone":381,"DST":-3,"destinations":[5366,7546,6900]},
{"City":"Rouyn-Noranda","DBTZ":"B","Name":"Rouyn Noranda Airport","Country":"CA","IATA/FAA":"YUY","Longitude":null,"Airport ID":"CYUY","Latitude":null,"Timezone":142,"DST":3,"destinations":[6815,215]},
{"City":"Sorriso","DBTZ":"D","Name":"Adolino Bedin Regional Airport","Country":"BR","IATA/FAA":"SMT","Longitude":null,"Airport ID":"SBSO","Latitude":null,"Timezone":617,"DST":11,"destinations":[5182]},
{"City":"Santa Rosa","DBTZ":"A","Name":"Santa Rosa Airport","Country":"AR","IATA/FAA":"RSA","Longitude":null,"Airport ID":"SAZR","Latitude":null,"Timezone":189,"DST":-11,"destinations":[8601,4472]},
{"City":"Fargo","DBTZ":"D","Name":"Hector International Airport","Country":"US","IATA/FAA":"FAR","Longitude":null,"Airport ID":"KFAR","Latitude":null,"Timezone":870,"DST":1,"destinations":[1328,474,6059]},
{"City":"Pehuajó","DBTZ":"D","Name":"Comodoro Pedro Zanni Airport","Country":"AR","IATA/FAA":"PEH","Longitude":null,"Airport ID":"SAZP","Latitude":null,"Timezone":357,"DST":4,"destinations":[1613,8160]},
{"City":"Jijiga","DBTZ":"D","Name":"Wilwal International Airport","Country":"ET","IATA/FAA":"JIJ","Longitude":null,"Airport ID":"HAJJ","Latitude":null,"Timezone":190,"DST":3,"destinations":[5868,7838]},
{"City":"Great Falls","DBTZ":"D","Name":"Great Falls International Airport","Country":"US","IATA/FAA":"GTF","Longitude":null,"Airport ID":"KGTF","Latitude":null,"Timezone":353,"DST":-8,"destinations":[932,9040,3948]},
{"City":"Biarritz/Anglet/Bayonne","DBTZ":"B","Name":"Biarritz-Anglet-Bayonne Airport","Country":"FR","IATA/FAA":"BIQ","Longitude":null,"Airport ID":"LFBZ","Latitude":null,"Timezone":861,"DST":-9,"destinations":[4289]},
{"City":"Da Nang","DBTZ":"E","Name":"Da Nang International Airport","Country":"VN","IATA/FAA":"DAD","Longitude":null,"Airport ID":"VVDN","Latitude":null,"Timezone":230,"DST":3,"destinations":[7600,2424,6991]},
{"City":null,"DBTZ":"C","Name":"Kingaroy Airport","Country":"AU","IATA/FAA":"KGY","Longitude":null,"Airport ID":"YKRY","Latitude":null,"Timezone":6,"DST":-8,"destinations":[8389]},
{"City":"Eagle Lake","DBTZ":"E","Name":"Eagle Lake Airport","Country":"US","IATA/FAA":"ELA","Longitude":null,"Airport ID":"KELA","Latitude":null,"Timezone":199,"DST":-3,"destinations":[8667]},
{"City":"Moala","DBTZ":"D","Name":"Moala Airport","Country":"FJ","IATA/FAA":"MFJ","Longitude":null,"Airport ID":"NFMO","Latitude":null,"Timezone":797,"DST":2,"destinations":[6564]},
{"City":"Búðardalur","DBTZ":"D","Name":"Búðardalur Airport","Country":"IS","IATA/FAA":"BQD","Longitude":null,"Airport ID":"BIBR","Latitude":null,"Timezone":514,"DST":-8,"destinations":[1517]},
{"City":"Merowe","DBTZ":"B","Name":"Merowe New Airport","Country":"SD","IATA/FAA":"MWE","Longitude":null,"Airport ID":"HSMN","Latitude":null,"Timezone":121,"DST":-6,"destinations":[6666]},
{"City":"Berlin","DBTZ":"C","Name":"Berlin-Schönefeld Airport","Country":"DE","IATA/FAA":"SXF","Longitude":null,"Airport ID":"EDDB","Latitude":null,"Timezone":919,"DST":4,"destinations":[6257,2345,9263]},
{"City":"N'Délé","DBTZ":"B","Name":"N'Délé Airport","Country":"CF","IATA/FAA":"NDL","Longitude":null,"Airport ID":"FEFN","Latitude":null,"Timezone":54,"DST":10,"destinations":[283,9290]},
{"City":"Kauhava","DBTZ":"B","Name":"Kauhava Airport","Country":"FI","IATA/FAA":"KAU","Longitude":null,"Airport ID":"EFKA","Latitude":null,"Timezone":741,"DST":1,"destinations":[8509,1166,2773]},
{"City":"Kavala","DBTZ":"B","Name":"Alexander the Great International Airport","Country":"GR","IATA/FAA":"KVA","Longitude":null,"Airport ID":"LGKV","Latitude":null,"Timezone":638,"DST":2,"destinations":[6576,2777,7942]},
{"City":"Birao","DBTZ":"D","Name":"Birao Airport","Country":"CF","IATA/FAA":"IRO","Longitude":null,"Airport ID":"FEFI","Latitude":null,"Timezone":236,"DST":9,"destinations":[8813]},
{"City":"Olathe","DBTZ":"D","Name":"New Century Aircenter Airport","Country":"US","IATA/FAA":"JCI","Longitude":null,"Airport ID":"KIXD","Latitude":null,"Timezone":633,"DST":-4,"destinations":[2865,322]},
{"City":"Klaipėda","DBTZ":"A","Name":"Klaipėda Airport","Country":"LT","IATA/FAA":"KLJ","Longitude":null,"Airport ID":"EYKL","Latitude":null,"Timezone":209,"DST":-3,"destinations":[2765,5088]},
{"City":"Port Graham","DBTZ":"D","Name":"Port Graham Airport","Country":"US","IATA/FAA":"PGM","Longitude":null,"Airport ID":"PGM","Latitude":null,"Timezone":525,"DST":5,"destinations":[5829,4973,6621]},
{"City":"Lakeba Island","DBTZ":"E","Name":"Lakeba Island Airport","Country":"FJ","IATA/FAA":"LKB","Longitude":null,"Airport ID":"NFNK","Latitude":null,"Timezone":181,"DST":-12,"destinations":[4448,1055,2495]},
{"City":"Columbia","DBTZ":"B","Name":"Columbia Metropolitan Airport","Country":"US","IATA/FAA":"CAE","Longitude":null,"Airport ID":"KCAE","Latitude":null,"Timezone":979,"DST":7,"destinations":[6388,3474]},
{"City":"Weihai","DBTZ":"B","Name":"Weihai Airport","Country":"CN","IATA/FAA":"WEH","Longitude":null,"Airport ID":"ZSWH","Latitude":null,"Timezone":180,"DST":-8,"destinations":[8095,8642,4593]},
{"City":"Karaj","DBTZ":"A","Name":"Payam International Airport","Country":"IR","IATA/FAA":"PYK","Longitude":null,"Airport ID":"OIIP","Latitude":null,"Timezone":64,"DST":11,"destinations":[9143,6583,7633]},
{"City":"Gyumri","DBTZ":"C","Name":"Gyumri Shirak Airport","Country":"AM","IATA/FAA":"LWN","Longitude":null,"Airport ID":"UDSG","Latitude":null,"Timezone":245,"DST":-9,"destinations":[6451]},
{"City":"Aribinda","DBTZ":"C","Name":"Aribinda Airport","Country":"BF","IATA/FAA":"XAR","Longitude":null,"Airport ID":"DFOY","Latitude":null,"Timezone":50,"DST":12,"destinations":[7317,9894]},
{"City":"Rzeszów","DBTZ":"D","Name":"Rzeszów-Jasionka Airport","Country":"PL","IATA/FAA":"RZE","Longitude":null,"Airport ID":"EPRZ","Latitude":null,"Timezone":58,"DST":-12,"destinations":[1173,6172]},
{"City":"Mamai","DBTZ":"D","Name":"Mamai Airport","Country":"PG","IATA/FAA":"MAP","Longitude":null,"Airport ID":null,"Latitude":null,"Timezone":876,"DST":-11,"destinations":[4807]},
{"City":"Santa Rosa","DBTZ":"B","Name":"Santa Rosa Airport","Country":"AR","IATA/FAA":"RSA","Longitude":null,"Airport ID":"SAZR","Latitude":null,"Timezone":961,"DST":6,"destinations":[2972,1279]},
{"City":"Concordia","DBTZ":"A","Name":"Blosser Municipal Airport","Country":"US","IATA/FAA":"CNK","Longitude":null,"Airport ID":"KCNK","Latitude":null,"Timezone":866,"DST":-3,"destinations":[5298,9268]},
{"City":"Waverney","DBTZ":"B","Name":"Waverney Airport","Country":"AU","IATA/FAA":"WAN","Longitude":null,"Airport ID":null,"Latitude":null,"Timezone":809,"DST":-5,"destinations":[257]},
{"City":"Kitzingen","DBTZ":"D","Name":"Flugplatz Kitzingen","Country":"DE","IATA/FAA":"KZG","Longitude":null,"Airport ID":"EDGY","Latitude":null,"Timezone":530,"DST":-7,"destinations":[395,7359,2739]},
{"City":"Lokichoggio","DBTZ":"B","Name":"Lokichoggio Airport","Country":"KE","IATA/FAA":"LKG","Longitude":null,"Airport ID":"HKLK","Latitude":null,"Timezone":134,"DST":0,"destinations":[2595]},
{"City":"Alta Floresta","DBTZ":"A","Name":"Piloto Osvaldo Marques Dias Airport","Country":"BR","IATA/FAA":"AFL","Longitude":null,"Airport ID":"SBAT","Latitude":null,"Timezone":682,"DST":0,"destinations":[386,4914,8239]},
{"City":"Loikaw","DBTZ":"B","Name":"Loikaw Airport","Country":"MM","IATA/FAA":"LIW","Longitude":null,"Airport ID":"VYLK","Latitude":null,"Timezone":801,"DST":1,"destinations":[3210,6690]},
{"City":"Oksibil-Papua Island","DBTZ":"B","Name":"Oksibil Airport","Country":"ID","IATA/FAA":"OKL","Longitude":null,"Airport ID":"WAJO","Latitude":null,"Timezone":45,"DST":3,"destinations":[5302,3086]},
{"City":"Wuyishan","DBTZ":"C","Name":"Nanping Wuyishan Airport","Country":"CN","IATA/FAA":"WUS","Longitude":null,"Airport ID":"ZSWY","Latitude":null,"Timezone":125,"DST":-1,"destinations":[9870]},
{"City":"Chitose / Tomakomai","DBTZ":"C","Name":"New Chitose Airport","Country":"JP","IATA/FAA":"CTS","Longitude":null,"Airport ID":"RJCC","Latitude":null,"Timezone":330,"DST":-5,"destinations":[2647,6743]},
{"City":"Kvernberget","DBTZ":"E","Name":"Kristiansund Airport (Kvernberget)","Country":"NO","IATA/FAA":"KSU","Longitude":null,"Airport ID":"ENKB","Latitude":null,"Timezone":958,"DST":12,"destinations":[8995,2540,3996]},
{"City":"Komatipoort","DBTZ":"A","Name":"Komatipoort Airport","Country":"ZA","IATA/FAA":"KOF","Longitude":null,"Airport ID":"FAKP","Latitude":null,"Timezone":946,"DST":1,"destinations":[5376,1654]},
{"City":"Yarmouth","DBTZ":"A","Name":"Yarmouth Airport","Country":"CA","IATA/FAA":"YQI","Longitude":null,"Airport ID":"CYQI","Latitude":null,"Timezone":998,"DST":-12,"destinations":[4437,7880]},
{"City":"Basankusu","DBTZ":"A","Name":"Basankusu Airport","Country":"CD","IATA/FAA":"BSU","Longitude":null,"Airport ID":"FZEN","Latitude":null,"Timezone":719,"DST":-1,"destinations":[7893,5214]},
{"City":"Menominee","DBTZ":"D","Name":"Menominee Regional Airport","Country":"US","IATA/FAA":"MNM","Longitude":null,"Airport ID":"KMNM","Latitude":null,"Timezone":961,"DST":-10,"destinations":[5953]},
{"City":"Chagai","DBTZ":"D","Name":"Reko Diq Airport","Country":"PK","IATA/FAA":"REQ","Longitude":null,"Airport ID":null,"Latitude":null,"Timezone":46,"DST":-7,"destinations":[5176,7374,1295]},
{"City":"Yandina","DBTZ":"A","Name":"Yandina Airport","Country":"SB","IATA/FAA":"XYA","Longitude":null,"Airport ID":"AGGY","Latitude":null,"Timezone":280,"DST":-1,"destinations":[2553]},
{"City":"Kagua","DBTZ":"C","Name":"Kagua Airport","Country":"PG","IATA/FAA":"AGK","Longitude":null,"Airport ID":null,"Latitude":null,"Timezone":905,"DST":-2,"destinations":[7063,2934,4139]},
{"City":"Batesville","DBTZ":"B","Name":"Batesville Regional Airport","Country":"US","IATA/FAA":"BVX","Longitude":null,"Airport ID":"KBVX","Latitude":null,"Timezone":96,"DST":9,"destinations":[923]},
{"City":"Guilin City","DBTZ":"C","Name":"Guilin Liangjiang International Airport","Country":"CN","IATA/FAA":"KWL","Longitude":null,"Airport ID":"ZGKL","Latitude":null,"Timezone":157,"DST":-8,"destinations":[4234,5085,7135]},
{"City":"Wharton","DBTZ":"D","Name":"Wharton Regional Airport","Country":"US","IATA/FAA":"WHT","Longitude":null,"Airport ID":"KARM","Latitude":null,"Timezone":240,"DST":-1,"destinations":[5758,5757]},
{"City":"Chicago/Romeoville","DBTZ":"D","Name":"Lewis University Airport","Country":"US","IATA/FAA":"LOT","Longitude":null,"Airport ID":"KLOT","Latitude":null,"Timezone":821,"DST":12,"destinations":[665]},
{"City":"Amahai-Seram Island","DBTZ":"C","Name":"Amahai Airport","Country":"ID","IATA/FAA":"AHI","Longitude":null,"Airport ID":"WAPA","Latitude":null,"Timezone":347,"DST":-4,"destinations":[3192]},
{"City":"Imperial","DBTZ":"E","Name":"Imperial Municipal Airport","Country":"US","IATA/FAA":"IML","Longitude":null,"Airport ID":"KIML","Latitude":null,"Timezone":161,"DST":6,"destinations":[4545]},
{"City":"Mikkeli","DBTZ":"C","Name":"Mikkeli Airport","Country":"FI","IATA/FAA":"MIK","Longitude":null,"Airport ID":"EFMI","Latitude":null,"Timezone":456,"DST":7,"destinations":[8796,595]},
{"City":"Pelican","DBTZ":"C","Name":"Pelican Seaplane Base","Country":"US","IATA/FAA":"PEC","Longitude":null,"Airport ID":"PEC","Latitude":null,"Timezone":325,"DST":-12,"destinations":[8266,3214,3590]},
{"City":"Redding","DBTZ":"D","Name":"Benton Field","Country":"US","IATA/FAA":"BZF","Longitude":null,"Airport ID":"O85","Latitude":null,"Timezone":919,"DST":-3,"destinations":[832,6091,7382]},
{"City":"Hamilton","DBTZ":"C","Name":"John C. Munro Hamilton International Airport","Country":"CA","IATA/FAA":"YHM","Longitude":null,"Airport ID":"CYHM","Latitude":null,"Timezone":244,"DST":-11,"destinations":[1846,9167]},
{"City":"Humaitá","DBTZ":"D","Name":"Humaitá Airport","Country":"BR","IATA/FAA":"HUW","Longitude":null,"Airport ID":"SWHT","Latitude":null,"Timezone":573,"DST":-1,"destinations":[6399]},
{"City":"Sartaneja","DBTZ":"E","Name":"Sartaneja Airport","Country":"BZ","IATA/FAA":"SJX","Longitude":null,"Airport ID":null,"Latitude":null,"Timezone":380,"DST":0,"destinations":[265,9718,6767]},
{"City":"Savé","DBTZ":"E","Name":"Savé Airport","Country":"BJ","IATA/FAA":"SVF","Longitude":null,"Airport ID":"DBBS","Latitude":null,"Timezone":27,"DST":-3,"destinations":[9960]},
{"City":"Mahe Island","DBTZ":"A","Name":"Seychelles International Airport","Country":"SC","IATA/FAA":"SEZ","Longitude":null,"Airport ID":"FSIA","Latitude":null,"Timezone":523,"DST":12,"destinations":[1011,3885]},
{"City":"Fort Liard","DBTZ":"D","Name":"Fort Liard Airport","Country":"CA","IATA/FAA":"YJF","Longitude":null,"Airport ID":"CYJF","Latitude":null,"Timezone":420,"DST":7,"destinations":[7037,865]},
{"City":"Apiay","DBTZ":"B","Name":"Gomez Nino Apiay Air Base","Country":"CO","IATA/FAA":"API","Longitude":null,"Airport ID":"SKAP","Latitude":null,"Timezone":441,"DST":-4,"destinations":[5345]},
{"City":"Summer Beaver","DBTZ":"B","Name":"Summer Beaver Airport","Country":"CA","IATA/FAA":"SUR","Longitude":null,"Airport ID":"CJV7","Latitude":null,"Timezone":134,"DST":-10,"destinations":[9855,3946,270]},
{"City":"Birch Creek","DBTZ":"B","Name":"Birch Creek Airport","Country":"US","IATA/FAA":"KBC","Longitude":null,"Airport ID":"Z91","Latitude":null,"Timezone":228,"DST":-4,"destinations":[1295]},
{"City":null,"DBTZ":"D","Name":"Cumaná (Antonio José de Sucre) Airport","Country":"VE","IATA/FAA":"CUM","Longitude":null,"Airport ID":"SVCU","Latitude":null,"Timezone":815,"DST":2,"destinations":[5921,5646,3696]},
{"City":"Detroit","DBTZ":"D","Name":"Willow Run Airport","Country":"US","IATA/FAA":"YIP","Longitude":null,"Airport ID":"KYIP","Latitude":null,"Timezone":143,"DST":1,"destinations":[9607,8361,9851]},
{"City":"Garissa","DBTZ":"D","Name":"Garissa Airport","Country":"KE","IATA/FAA":"GAS","Longitude":null,"Airport ID":"HKGA","Latitude":null,"Timezone":535,"DST":2,"destinations":[9949,5368,7787]},
{"City":"Chitose / Tomakomai","DBTZ":"A","Name":"New Chitose Airport","Country":"JP","IATA/FAA":"CTS","Longitude":null,"Airport ID":"RJCC","Latitude":null,"Timezone":691,"DST":-8,"destinations":[6637]},
{"City":"Anacortes","DBTZ":"B","Name":"Anacortes Airport","Country":"US","IATA/FAA":"OTS","Longitude":null,"Airport ID":null,"Latitude":null,"Timezone":477,"DST":-2,"destinations":[3041,5495]},
{"City":"Grand Rapids","DBTZ":"C","Name":"Gerald R. Ford International Airport","Country":"US","IATA/FAA":"GRR","Longitude":null,"Airport ID":"KGRR","Latitude":null,"Timezone":777,"DST":-6,"destinations":[1543,6477,275]},
{"City":"Waterford","DBTZ":"B","Name":"Waterford Airport","Country":"IE","IATA/FAA":"WAT","Longitude":null,"Airport ID":"EIWF","Latitude":null,"Timezone":965,"DST":7,"destinations":[1989,7985]},
{"City":null,"DBTZ":"C","Name":"Barreirinhas Airport","Country":"BR","IATA/FAA":"BRB","Longitude":null,"Airport ID":"SSRS","Latitude":null,"Timezone":138,"DST":-1,"destinations":[3031,1500,7923]},
{"City":"Humera","DBTZ":"C","Name":"Humera Airport","Country":"ET","IATA/FAA":"HUE","Longitude":null,"Airport ID":"HAHU","Latitude":null,"Timezone":377,"DST":-9,"destinations":[6886,6860]},
{"City":"Allakaket","DBTZ":"E","Name":"Allakaket Airport","Country":"US","IATA/FAA":"AET","Longitude":null,"Airport ID":"PFAL","Latitude":null,"Timezone":768,"DST":-12,"destinations":[6662]},
{"City":"Ankavandra","DBTZ":"A","Name":"Ankavandra Airport","Country":"MG","IATA/FAA":"JVA","Longitude":null,"Airport ID":"FMMK","Latitude":null,"Timezone":838,"DST":-12,"destinations":[3927,9936]},
{"City":"San Juan","DBTZ":"A","Name":"San Juan Airport","Country":"DO","IATA/FAA":"SJM","Longitude":null,"Airport ID":"MDSJ","Latitude":null,"Timezone":566,"DST":-10,"destinations":[6501,2996,2333]},
{"City":"Whitehorse","DBTZ":"E","Name":"Whitehorse / Erik Nielsen International Airport","Country":"CA","IATA/FAA":"YXY","Longitude":null,"Airport ID":"CYXY","Latitude":null,"Timezone":289,"DST":5,"destinations":[4961]},
{"City":"Jacobabad","DBTZ":"B","Name":"Shahbaz Air Base","Country":"PK","IATA/FAA":"JAG","Longitude":null,"Airport ID":"OPJA","Latitude":null,"Timezone":905,"DST":-4,"destinations":[3750]},
{"City":"Vava'u Island","DBTZ":"D","Name":"Vava'u International Airport","Country":"TO","IATA/FAA":"VAV","Longitude":null,"Airport ID":"NFTV","Latitude":null,"Timezone":531,"DST":0,"destinations":[8291,7636]},
{"City":"Wekweètì","DBTZ":"A","Name":"Wekweètì Airport","Country":"CA","IATA/FAA":"YFJ","Longitude":null,"Airport ID":"CYWE","Latitude":null,"Timezone":393,"DST":-5,"destinations":[8548,9950]},
{"City":"Labuan","DBTZ":"E","Name":"Labuan Airport","Country":"MY","IATA/FAA":"LBU","Longitude":null,"Airport ID":"WBKL","Latitude":null,"Timezone":125,"DST":0,"destinations":[2322,1269,7276]},
{"City":"Dadu","DBTZ":"D","Name":"Dadu Airport","Country":"PK","IATA/FAA":"DDU","Longitude":null,"Airport ID":"OPDD","Latitude":null,"Timezone":665,"DST":10,"destinations":[7853,6788,6899]},
{"City":null,"DBTZ":"C","Name":"Valle de La Pascua Airport","Country":"VE","IATA/FAA":"VDP","Longitude":null,"Airport ID":"SVVP","Latitude":null,"Timezone":328,"DST":-6,"destinations":[1828,8142]},
{"City":"Ibo","DBTZ":"D","Name":"Ibo Airport","Country":"MZ","IATA/FAA":"IBO","Longitude":null,"Airport ID":"FQIB","Latitude":null,"Timezone":828,"DST":3,"destinations":[5499,5759]},
{"City":"Ar Rayyan","DBTZ":"A","Name":"Al Udeid Air Base","Country":"QA","IATA/FAA":"XJD","Longitude":null,"Airport ID":"OTBH","Latitude":null,"Timezone":165,"DST":6,"destinations":[2442,791]},
{"City":"Augusta","DBTZ":"D","Name":"Daniel Field","Country":"US","IATA/FAA":"DNL","Longitude":null,"Airport ID":"KDNL","Latitude":null,"Timezone":26,"DST":-7,"destinations":[6005,4635,6057]},
{"City":"Propriá","DBTZ":"B","Name":"Propriá Airport","Country":"BR","IATA/FAA":"0","Longitude":null,"Airport ID":"SNOP","Latitude":null,"Timezone":752,"DST":8,"destinations":[4891,3828,1733]},
{"City":"Bhairawa","DBTZ":"C","Name":"Gautam Buddha Airport","Country":"NP","IATA/FAA":"BWA","Longitude":null,"Airport ID":"VNBW","Latitude":null,"Timezone":323,"DST":9,"destinations":[3062,9879]},
{"City":"Lima","DBTZ":"D","Name":"Lima Allen County Airport","Country":"US","IATA/FAA":"AOH","Longitude":null,"Airport ID":"KAOH","Latitude":null,"Timezone":941,"DST":-12,"destinations":[5152]},
{"City":"Vila Real","DBTZ":"D","Name":"Vila Real Airport","Country":"PT","IATA/FAA":"VRL","Longitude":null,"Airport ID":"LPVR","Latitude":null,"Timezone":508,"DST":1,"destinations":[3206,2804,6400]},
{"City":null,"DBTZ":"E","Name":"Roseberth Airport","Country":"AU","IATA/FAA":"RSB","Longitude":null,"Airport ID":"YRSB","Latitude":null,"Timezone":180,"DST":-8,"destinations":[5213,4709,5655]},
{"City":"Marau","DBTZ":"D","Name":"Marau Airport","Country":"SB","IATA/FAA":"RUS","Longitude":null,"Airport ID":"AGGU","Latitude":null,"Timezone":291,"DST":8,"destinations":[6287]},
{"City":"Altus","DBTZ":"C","Name":"Altus Air Force Base","Country":"US","IATA/FAA":"LTS","Longitude":null,"Airport ID":"KLTS","Latitude":null,"Timezone":229,"DST":-9,"destinations":[4630,608]},
{"City":"Canaima","DBTZ":"B","Name":"Canaima Airport","Country":"VE","IATA/FAA":"CAJ","Longitude":null,"Airport ID":"SVCN","Latitude":null,"Timezone":731,"DST":4,"destinations":[5180]},
{"City":"Teller","DBTZ":"A","Name":"Teller Airport","Country":"US","IATA/FAA":"TLA","Longitude":null,"Airport ID":"PATE","Latitude":null,"Timezone":722,"DST":8,"destinations":[1555,5543,7626]},
{"City":"Fort Knox","DBTZ":"E","Name":"Godman Army Air Field","Country":"US","IATA/FAA":"FTK","Longitude":null,"Airport ID":"KFTK","Latitude":null,"Timezone":948,"DST":0,"destinations":[6851]},
{"City":"Minsk","DBTZ":"C","Name":"Minsk National Airport","Country":"BY","IATA/FAA":"MSQ","Longitude":null,"Airport ID":"UMMS","Latitude":null,"Timezone":239,"DST":11,"destinations":[1085,5710]},
{"City":null,"DBTZ":"C","Name":"Oakey Airport","Country":"AU","IATA/FAA":"OKY","Longitude":null,"Airport ID":"YBOK","Latitude":null,"Timezone":934,"DST":-9,"destinations":[1648,8093]},
{"City":"Neyveli","DBTZ":"A","Name":"Neyveli Airport","Country":"IN","IATA/FAA":"NVY","Longitude":null,"Airport ID":"VONV","Latitude":null,"Timezone":693,"DST":3,"destinations":[9286,9180]},
{"City":null,"DBTZ":"D","Name":"Tandag Airport","Country":"PH","IATA/FAA":"TDG","Longitude":null,"Airport ID":"RPMW","Latitude":null,"Timezone":620,"DST":-4,"destinations":[2480]},
{"City":"Melbourne","DBTZ":"A","Name":"Melbourne Moorabbin Airport","Country":"AU","IATA/FAA":"MBW","Longitude":null,"Airport ID":"YMMB","Latitude":null,"Timezone":781,"DST":4,"destinations":[603,3240]},
{"City":"St. Mary's","DBTZ":"E","Name":"St. Mary's Airport","Country":"GB","IATA/FAA":"ISC","Longitude":null,"Airport ID":"EGHE","Latitude":null,"Timezone":56,"DST":7,"destinations":[4863,4697,1877]},
{"City":"Ji-Paraná","DBTZ":"E","Name":"Ji-Paraná Airport","Country":"BR","IATA/FAA":"JPR","Longitude":null,"Airport ID":"SBJI","Latitude":null,"Timezone":160,"DST":10,"destinations":[6354,8639,2278]},
{"City":"Terrace Bay","DBTZ":"E","Name":"Terrace Bay Airport","Country":"NA","IATA/FAA":"TCY","Longitude":null,"Airport ID":"FYTE","Latitude":null,"Timezone":49,"DST":-12,"destinations":[6922]},
{"City":"Kuantan","DBTZ":"A","Name":"Kuantan Airport","Country":"MY","IATA/FAA":"KUA","Longitude":null,"Airport ID":"WMKD","Latitude":null,"Timezone":780,"DST":-1,"destinations":[7300]},
{"City":"Haikou","DBTZ":"B","Name":"Haikou Meilan International Airport","Country":"CN","IATA/FAA":"HAK","Longitude":null,"Airport ID":"ZJHK","Latitude":null,"Timezone":446,"DST":-4,"destinations":[3563]},
{"City":"Dera Ismael Khan","DBTZ":"E","Name":"Dera Ismael Khan Airport","Country":"PK","IATA/FAA":"DSK","Longitude":null,"Airport ID":"OPDI","Latitude":null,"Timezone":732,"DST":7,"destinations":[3198]},
{"City":"Storck Barracks","DBTZ":"B","Name":"Illesheim Air Base","Country":"DE","IATA/FAA":"ILH","Longitude":null,"Airport ID":"ETIK","Latitude":null,"Timezone":796,"DST":9,"destinations":[6381]},
{"City":"Pindiu","DBTZ":"A","Name":"Pindiu Airport","Country":"PG","IATA/FAA":"PDI","Longitude":null,"Airport ID":"AYPD","Latitude":null,"Timezone":98,"DST":3,"destinations":[2759]},
{"City":"Lawrenceville","DBTZ":"A","Name":"Gwinnett County Briscoe Field","Country":"US","IATA/FAA":"LZU","Longitude":null,"Airport ID":"KLZU","Latitude":null,"Timezone":800,"DST":-5,"destinations":[3847,7275]},
{"City":"Quelimane","DBTZ":"A","Name":"Quelimane Airport","Country":"MZ","IATA/FAA":"UEL","Longitude":null,"Airport ID":"FQQL","Latitude":null,"Timezone":36,"DST":10,"destinations":[5772,8959]},
{"City":"Tanjung Selor-Borneo Island","DBTZ":"C","Name":"Tanjung Harapan Airport","Country":"ID","IATA/FAA":"TJS","Longitude":null,"Airport ID":"WALG","Latitude":null,"Timezone":849,"DST":8,"destinations":[934,1424,6418]},
{"City":"Maple Bay","DBTZ":"D","Name":"Maple Bay Seaplane Base","Country":"CA","IATA/FAA":"YAQ","Longitude":null,"Airport ID":null,"Latitude":null,"Timezone":949,"DST":-2,"destinations":[702]},
{"City":"Puerto Madryn","DBTZ":"B","Name":"El Tehuelche Airport","Country":"AR","IATA/FAA":"PMY","Longitude":null,"Airport ID":"SAVY","Latitude":null,"Timezone":704,"DST":3,"destinations":[9745]},
{"City":"Lahad Datu","DBTZ":"D","Name":"Lahad Datu Airport","Country":"MY","IATA/FAA":"LDU","Longitude":null,"Airport ID":"WBKD","Latitude":null,"Timezone":975,"DST":4,"destinations":[7440,8469]},
{"City":"Sequim","DBTZ":"D","Name":"Sequim Valley Airport","Country":"US","IATA/FAA":"SQV","Longitude":null,"Airport ID":"W28","Latitude":null,"Timezone":179,"DST":-6,"destinations":[6313]},
{"City":null,"DBTZ":"D","Name":"Savannakhet Airport","Country":"LA","IATA/FAA":"ZVK","Longitude":null,"Airport ID":"VLSK","Latitude":null,"Timezone":379,"DST":-5,"destinations":[7252,8997]},
{"City":"Talara","DBTZ":"D","Name":"Capitan Montes Airport","Country":"PE","IATA/FAA":"TYL","Longitude":null,"Airport ID":"SPYL","Latitude":null,"Timezone":45,"DST":-10,"destinations":[7701]},
{"City":"Stirling Island","DBTZ":"D","Name":"Mono Airport","Country":"SB","IATA/FAA":"MNY","Longitude":null,"Airport ID":"AGGO","Latitude":null,"Timezone":408,"DST":-1,"destinations":[582]},
{"City":"Puttaparthi","DBTZ":"E","Name":"Sri Sathya Sai Airport","Country":"IN","IATA/FAA":"PUT","Longitude":null,"Airport ID":"VOPN","Latitude":null,"Timezone":885,"DST":1,"destinations":[982,2245]},
{"City":"Little Cayman","DBTZ":"D","Name":"Edward Bodden Airfield","Country":"KY","IATA/FAA":"LYB","Longitude":null,"Airport ID":"MWCL","Latitude":null,"Timezone":203,"DST":-3,"destinations":[126,4926]},
{"City":"Chitato","DBTZ":"A","Name":"Chitato Airport","Country":"AO","IATA/FAA":"PGI","Longitude":null,"Airport ID":"FNCH","Latitude":null,"Timezone":638,"DST":-7,"destinations":[3149,8787,7354]},
{"City":"Kimaam","DBTZ":"C","Name":"Kimaam Airport","Country":"ID","IATA/FAA":"KMM","Longitude":null,"Airport ID":null,"Latitude":null,"Timezone":66,"DST":10,"destinations":[7481,4725,1678]},
{"City":"Fairfield","DBTZ":"C","Name":"Travis Air Force Base","Country":"US","IATA/FAA":"SUU","Longitude":null,"Airport ID":"KSUU","Latitude":null,"Timezone":959,"DST":2,"destinations":[3724]},
{"City":"Phaplu","DBTZ":"D","Name":"Phaplu Airport","Country":"NP","IATA/FAA":"PPL","Longitude":null,"Airport ID":"VNPL","Latitude":null,"Timezone":88,"DST":9,"destinations":[5055]},
{"City":"Kalima","DBTZ":"A","Name":"Kinkungwa Airport","Country":"CD","IATA/FAA":"KLY","Longitude":null,"Airport ID":"FZOD","Latitude":null,"Timezone":391,"DST":1,"destinations":[0,2089,6279]},
{"City":"Augusta","DBTZ":"B","Name":"Daniel Field","Country":"US","IATA/FAA":"DNL","Longitude":null,"Airport ID":"KDNL","Latitude":null,"Timezone":726,"DST":-3,"destinations":[1812,4882]},
{"City":"Tanandava","DBTZ":"C","Name":"Samangoky Airport","Country":"MG","IATA/FAA":"TDV","Longitude":null,"Airport ID":"FMSN","Latitude":null,"Timezone":720,"DST":-8,"destinations":[3292,8271,6617]},
{"City":"Mae Hong Son","DBTZ":"D","Name":"Mae Hong Son Airport","Country":"TH","IATA/FAA":"PYY","Longitude":null,"Airport ID":"VTCI","Latitude":null,"Timezone":191,"DST":9,"destinations":[2899]},
{"City":"Galle","DBTZ":"B","Name":"Koggala Airport","Country":"LK","IATA/FAA":"KCT","Longitude":null,"Airport ID":"VCCK","Latitude":null,"Timezone":757,"DST":-8,"destinations":[8764,359,8644]},
{"City":"Tuluksak","DBTZ":"C","Name":"Tuluksak Airport","Country":"US","IATA/FAA":"TLT","Longitude":null,"Airport ID":"TLT","Latitude":null,"Timezone":228,"DST":11,"destinations":[941]},
{"City":"Chicago/West Chicago","DBTZ":"E","Name":"Dupage Airport","Country":"US","IATA/FAA":"DPA","Longitude":null,"Airport ID":"KDPA","Latitude":null,"Timezone":844,"DST":12,"destinations":[6005]},
{"City":"Leros Island","DBTZ":"D","Name":"Leros Airport","Country":"GR","IATA/FAA":"LRS","Longitude":null,"Airport ID":"LGLE","Latitude":null,"Timezone":296,"DST":-11,"destinations":[2252,6400,2065]},
{"City":"Plastun","DBTZ":"A","Name":"Plastun Airport","Country":"RU","IATA/FAA":"TLY","Longitude":null,"Airport ID":"UHWP","Latitude":null,"Timezone":76,"DST":3,"destinations":[863,3504,1031]},
{"City":"Bordj Badji Mokhtar","DBTZ":"B","Name":"Bordj Badji Mokhtar Airport","Country":"DZ","IATA/FAA":"BMW","Longitude":null,"Airport ID":"DATM","Latitude":null,"Timezone":609,"DST":8,"destinations":[2528,9848,6081]},
{"City":"Milan","DBTZ":"C","Name":"Malpensa International Airport","Country":"IT","IATA/FAA":"MXP","Longitude":null,"Airport ID":"LIMC","Latitude":null,"Timezone":589,"DST":1,"destinations":[6899]},
{"City":"Nueva Guinea","DBTZ":"A","Name":"Nueva Guinea Airport","Country":"NI","IATA/FAA":"NVG","Longitude":null,"Airport ID":"MNNG","Latitude":null,"Timezone":502,"DST":-2,"destinations":[283,754,8209]},
{"City":"Bountiful","DBTZ":"B","Name":"Skypark Airport","Country":"US","IATA/FAA":"BTF","Longitude":null,"Airport ID":"KBTF","Latitude":null,"Timezone":298,"DST":-5,"destinations":[3099,8366,5175]},
{"City":"Shungnak","DBTZ":"A","Name":"Shungnak Airport","Country":"US","IATA/FAA":"SHG","Longitude":null,"Airport ID":"PAGH","Latitude":null,"Timezone":747,"DST":1,"destinations":[7792,6606]},
{"City":"Centralia","DBTZ":"A","Name":"Centralia / James T. Field Memorial Aerodrome","Country":"CA","IATA/FAA":"YCE","Longitude":null,"Airport ID":"CYCE","Latitude":null,"Timezone":576,"DST":2,"destinations":[3353,1291,7703]},
{"City":"Saturna Island","DBTZ":"B","Name":"Lyall Harbour Seaplane Base","Country":"CA","IATA/FAA":"YAJ","Longitude":null,"Airport ID":null,"Latitude":null,"Timezone":666,"DST":0,"destinations":[4528]},
{"City":null,"DBTZ":"B","Name":"Celle Airport","Country":"DE","IATA/FAA":"ZCN","Longitude":null,"Airport ID":"ETHC","Latitude":null,"Timezone":97,"DST":12,"destinations":[2233,5787]},
{"City":"Ar Rayyan","DBTZ":"C","Name":"Al Udeid Air Base","Country":"QA","IATA/FAA":"XJD","Longitude":null,"Airport ID":"OTBH","Latitude":null,"Timezone":757,"DST":-10,"destinations":[8583,4386]},
{"City":"Rybinsk","DBTZ":"E","Name":"Staroselye Airport","Country":"RU","IATA/FAA":"RYB","Longitude":null,"Airport ID":"UUBK","Latitude":null,"Timezone":1,"DST":-10,"destinations":[5736,6410]},
{"City":"Syktyvkar","DBTZ":"A","Name":"Syktyvkar Airport","Country":"RU","IATA/FAA":"SCW","Longitude":null,"Airport ID":"UUYY","Latitude":null,"Timezone":915,"DST":-10,"destinations":[7279,1046]},
{"City":"Wageningen","DBTZ":"B","Name":"Wageningen Airstrip","Country":"SR","IATA/FAA":"AGI","Longitude":null,"Airport ID":"SMWA","Latitude":null,"Timezone":897,"DST":12,"destinations":[7318]},
{"City":"Saravena","DBTZ":"C","Name":"Los Colonizadores Airport","Country":"CO","IATA/FAA":"RVE","Longitude":null,"Airport ID":"SKSA","Latitude":null,"Timezone":47,"DST":3,"destinations":[4948,4339]},
{"City":null,"DBTZ":"A","Name":"Cluny Airport","Country":"AU","IATA/FAA":"CZY","Longitude":null,"Airport ID":"YUNY","Latitude":null,"Timezone":884,"DST":4,"destinations":[5873]},
{"City":"Skardu","DBTZ":"E","Name":"Skardu Airport","Country":"PK","IATA/FAA":"KDU","Longitude":null,"Airport ID":"OPSD","Latitude":null,"Timezone":304,"DST":-4,"destinations":[2015,1130,5228]},
{"City":null,"DBTZ":"B","Name":"Monclova International Airport","Country":"MX","IATA/FAA":"LOV","Longitude":null,"Airport ID":"MMMV","Latitude":null,"Timezone":192,"DST":5,"destinations":[1741,644]},
{"City":null,"DBTZ":"E","Name":"Hanamaki Airport","Country":"JP","IATA/FAA":"HNA","Longitude":null,"Airport ID":"RJSI","Latitude":null,"Timezone":41,"DST":-9,"destinations":[2854,9613]},
{"City":"Norrköping","DBTZ":"A","Name":"Norrköping Airport","Country":"SE","IATA/FAA":"NRK","Longitude":null,"Airport ID":"ESSP","Latitude":null,"Timezone":503,"DST":-4,"destinations":[2527,9079]},
{"City":null,"DBTZ":"B","Name":"Ronneby Airport","Country":"SE","IATA/FAA":"RNB","Longitude":null,"Airport ID":"ESDF","Latitude":null,"Timezone":248,"DST":8,"destinations":[6358,9354,7713]},
{"City":"Garça","DBTZ":"B","Name":"Garça Airport","Country":"BR","IATA/FAA":"0","Longitude":null,"Airport ID":"SDGC","Latitude":null,"Timezone":810,"DST":-12,"destinations":[6170,547,6241]},
{"City":"Pasto","DBTZ":"B","Name":"Antonio Narino Airport","Country":"CO","IATA/FAA":"PSO","Longitude":null,"Airport ID":"SKPS","Latitude":null,"Timezone":620,"DST":0,"destinations":[2742]},
{"City":"Walvis Bay","DBTZ":"D","Name":"Walvis Bay Airport","Country":"NA","IATA/FAA":"WVB","Longitude":null,"Airport ID":"FYWB","Latitude":null,"Timezone":122,"DST":3,"destinations":[1679,40,1355]},
{"City":"Carriacou Island","DBTZ":"E","Name":"Lauriston Airport","Country":"GD","IATA/FAA":"CRU","Longitude":null,"Airport ID":"TGPZ","Latitude":null,"Timezone":58,"DST":0,"destinations":[118,4968,3609]},
{"City":"Majuro Atoll","DBTZ":"C","Name":"Marshall Islands International Airport","Country":"MH","IATA/FAA":"MAJ","Longitude":null,"Airport ID":"PKMJ","Latitude":null,"Timezone":775,"DST":3,"destinations":[3411,5696,2924]},
{"City":"Mansehra","DBTZ":"D","Name":"Mansehra Airport","Country":"PK","IATA/FAA":"HRA","Longitude":null,"Airport ID":null,"Latitude":null,"Timezone":394,"DST":6,"destinations":[4184,9276,3477]},
{"City":"Grand Bahama","DBTZ":"B","Name":"Auxiliary Airfield","Country":"BS","IATA/FAA":"GBI","Longitude":null,"Airport ID":"MYGM","Latitude":null,"Timezone":438,"DST":-12,"destinations":[7840]},
{"City":"Yes Bay","DBTZ":"A","Name":"Yes Bay Lodge Seaplane Base","Country":"US","IATA/FAA":"WYB","Longitude":null,"Airport ID":"78K","Latitude":null,"Timezone":101,"DST":-7,"destinations":[3354,8722]},
{"City":"Alegrete","DBTZ":"E","Name":"Alegrete Novo Airport","Country":"BR","IATA/FAA":"ALQ","Longitude":null,"Airport ID":"SSLT","Latitude":null,"Timezone":854,"DST":5,"destinations":[176,1166]},
{"City":"Bogorodskoye","DBTZ":"A","Name":"Bogorodskoye Airport","Country":"RU","IATA/FAA":"BQG","Longitude":null,"Airport ID":"UHNB","Latitude":null,"Timezone":916,"DST":9,"destinations":[474,2430,6305]},
{"City":"Muscle Shoals","DBTZ":"A","Name":"Northwest Alabama Regional Airport","Country":"US","IATA/FAA":"MSL","Longitude":null,"Airport ID":"KMSL","Latitude":null,"Timezone":877,"DST":-3,"destinations":[6532,8690,3243]},
{"City":"Goronka","DBTZ":"B","Name":"Goroka Airport","Country":"PG","IATA/FAA":"GKA","Longitude":null,"Airport ID":"AYGA","Latitude":null,"Timezone":316,"DST":-3,"destinations":[3986,3426,3666]},
{"City":"Espanola","DBTZ":"E","Name":"Ohkay Owingeh Airport","Country":"US","IATA/FAA":"ESO","Longitude":null,"Airport ID":"E14","Latitude":null,"Timezone":513,"DST":-11,"destinations":[8031]},
{"City":"Hubli","DBTZ":"D","Name":"Hubli Airport","Country":"IN","IATA/FAA":"HBX","Longitude":null,"Airport ID":"VOHB","Latitude":null,"Timezone":23,"DST":-3,"destinations":[9171,5454,3545]},
{"City":"Cradock","DBTZ":"D","Name":"Cradock Airport","Country":"ZA","IATA/FAA":"CDO","Longitude":null,"Airport ID":"FACD","Latitude":null,"Timezone":135,"DST":-12,"destinations":[2241,8519,9583]},
{"City":"Nice","DBTZ":"B","Name":"Nice-Côte d'Azur Airport","Country":"FR","IATA/FAA":"NCE","Longitude":null,"Airport ID":"LFMN","Latitude":null,"Timezone":551,"DST":-3,"destinations":[560,6854,3038]},
{"City":"Ayacucho","DBTZ":"B","Name":"Ayacucho Airport","Country":"CO","IATA/FAA":"AYC","Longitude":null,"Airport ID":null,"Latitude":null,"Timezone":93,"DST":7,"destinations":[2353,394,6107]},
{"City":"Merlo","DBTZ":"C","Name":"Valle Del Conlara International Airport","Country":"AR","IATA/FAA":"RLO","Longitude":null,"Airport ID":"SAOS","Latitude":null,"Timezone":419,"DST":4,"destinations":[1463]},
{"City":"Divinópolis","DBTZ":"E","Name":"Brigadeiro Cabral Airport","Country":"BR","IATA/FAA":"DIQ","Longitude":null,"Airport ID":"SNDV","Latitude":null,"Timezone":77,"DST":-6,"destinations":[145,1493,3706]},
{"City":"Roti-Rote Island","DBTZ":"C","Name":"Roti Airport","Country":"ID","IATA/FAA":"RTI","Longitude":null,"Airport ID":null,"Latitude":null,"Timezone":827,"DST":-4,"destinations":[9730,2088,7232]},
{"City":"Fort Meade(Odenton)","DBTZ":"A","Name":"Tipton Airport","Country":"US","IATA/FAA":"FME","Longitude":null,"Airport ID":"KFME","Latitude":null,"Timezone":220,"DST":12,"destinations":[4061]},
{"City":"Dublin","DBTZ":"D","Name":"Dublin Airport","Country":"IE","IATA/FAA":"DUB","Longitude":null,"Airport ID":"EIDW","Latitude":null,"Timezone":781,"DST":6,"destinations":[8786,3612]},
{"City":"Parintins","DBTZ":"E","Name":"Parintins Airport","Country":"BR","IATA/FAA":"PIN","Longitude":null,"Airport ID":"SWPI","Latitude":null,"Timezone":120,"DST":-10,"destinations":[3914,2006,4433]},
{"City":"Tela","DBTZ":"C","Name":"Tela Airport","Country":"HN","IATA/FAA":"TEA","Longitude":null,"Airport ID":"MHTE","Latitude":null,"Timezone":441,"DST":5,"destinations":[245,4396]},
{"City":"Ruby","DBTZ":"D","Name":"Ruby Airport","Country":"US","IATA/FAA":"RBY","Longitude":null,"Airport ID":"PARY","Latitude":null,"Timezone":283,"DST":-6,"destinations":[2351]},
{"City":"Fort Worth","DBTZ":"E","Name":"Fort Worth Meacham International Airport","Country":"US","IATA/FAA":"FTW","Longitude":null,"Airport ID":"KFTW","Latitude":null,"Timezone":139,"DST":10,"destinations":[6970,5464,4300]},
{"City":"Ad Damazin","DBTZ":"D","Name":"Damazin Airport","Country":"SD","IATA/FAA":"RSS","Longitude":null,"Airport ID":"HSDZ","Latitude":null,"Timezone":722,"DST":5,"destinations":[8430,2238,7984]},
{"City":null,"DBTZ":"D","Name":"Chillagoe Airport","Country":"AU","IATA/FAA":"LLG","Longitude":null,"Airport ID":"YCGO","Latitude":null,"Timezone":229,"DST":12,"destinations":[7894]},
{"City":"Havadarya","DBTZ":"C","Name":"Havadarya Airport","Country":"IR","IATA/FAA":"HDR","Longitude":null,"Airport ID":"OIKP","Latitude":null,"Timezone":563,"DST":-6,"destinations":[4117]},
{"City":"Baku","DBTZ":"C","Name":"Heydar Aliyev International Airport","Country":"AZ","IATA/FAA":"GYD","Longitude":null,"Airport ID":"UBBB","Latitude":null,"Timezone":119,"DST":-8,"destinations":[5511]},
{"City":"Duqm","DBTZ":"B","Name":"Duqm International Airport","Country":"OM","IATA/FAA":"DQM","Longitude":null,"Airport ID":"OODQ","Latitude":null,"Timezone":891,"DST":0,"destinations":[825]},
{"City":"Homeward","DBTZ":"A","Name":"Thaba Nchu Tar Airport","Country":"ZA","IATA/FAA":"TCU","Longitude":null,"Airport ID":"FATN","Latitude":null,"Timezone":206,"DST":-5,"destinations":[4210,6438]},
{"City":null,"DBTZ":"D","Name":"Lengbati Airport","Country":"PG","IATA/FAA":"LNC","Longitude":null,"Airport ID":"AYLT","Latitude":null,"Timezone":878,"DST":-4,"destinations":[2886,6556]},
{"City":"Harrison","DBTZ":"A","Name":"Boone County Airport","Country":"US","IATA/FAA":"HRO","Longitude":null,"Airport ID":"KHRO","Latitude":null,"Timezone":19,"DST":-11,"destinations":[629,6252]},
{"City":"St Marys","DBTZ":"D","Name":"St Marys Municipal Airport","Country":"US","IATA/FAA":"STQ","Longitude":null,"Airport ID":"KOYM","Latitude":null,"Timezone":678,"DST":-11,"destinations":[1741]},
{"City":"Santa Barbara","DBTZ":"D","Name":"Santa Barbara Municipal Airport","Country":"US","IATA/FAA":"SBA","Longitude":null,"Airport ID":"KSBA","Latitude":null,"Timezone":453,"DST":-5,"destinations":[1041]},
{"City":"Beersheba","DBTZ":"E","Name":"Beersheba (Teyman) Airport","Country":"IL","IATA/FAA":"BEV","Longitude":null,"Airport ID":"LLBS","Latitude":null,"Timezone":181,"DST":6,"destinations":[9141,1172]},
{"City":null,"DBTZ":"B","Name":"Thargomindah Airport","Country":"AU","IATA/FAA":"XTG","Longitude":null,"Airport ID":"YTGM","Latitude":null,"Timezone":654,"DST":-1,"destinations":[9225,9049,7926]},
{"City":"Wunnumin Lake","DBTZ":"E","Name":"Wunnumin Lake Airport","Country":"CA","IATA/FAA":"WNN","Longitude":null,"Airport ID":"CKL3","Latitude":null,"Timezone":445,"DST":-12,"destinations":[1666,950,2327]},
{"City":null,"DBTZ":"B","Name":"Ulgii Mongolei Airport","Country":"MN","IATA/FAA":"ULG","Longitude":null,"Airport ID":"ZMUL","Latitude":null,"Timezone":151,"DST":8,"destinations":[2842]},
{"City":"Moroni","DBTZ":"A","Name":"Iconi Airport","Country":"KM","IATA/FAA":"YVA","Longitude":null,"Airport ID":"FMCN","Latitude":null,"Timezone":185,"DST":-2,"destinations":[3804]},
{"City":"Obano-Papua Island","DBTZ":"E","Name":"Obano Airport","Country":"ID","IATA/FAA":"OBD","Longitude":null,"Airport ID":"WABR","Latitude":null,"Timezone":555,"DST":-7,"destinations":[3346,9637,8832]},
{"City":"Iranshahr","DBTZ":"B","Name":"Iran Shahr Airport","Country":"IR","IATA/FAA":"IHR","Longitude":null,"Airport ID":"OIZI","Latitude":null,"Timezone":14,"DST":-6,"destinations":[1350,986,245]},
{"City":"San Borja","DBTZ":"C","Name":"Capitán Av. German Quiroga G. Airport","Country":"BO","IATA/FAA":"SRJ","Longitude":null,"Airport ID":"SLSB","Latitude":null,"Timezone":660,"DST":-9,"destinations":[7451,1134]},
{"City":"Cadillac","DBTZ":"E","Name":"Wexford County Airport","Country":"US","IATA/FAA":"CAD","Longitude":null,"Airport ID":"KCAD","Latitude":null,"Timezone":272,"DST":-6,"destinations":[4710]},
{"City":"Wiesbaden","DBTZ":"E","Name":"Wiesbaden Army Airfield","Country":"DE","IATA/FAA":"WIE","Longitude":null,"Airport ID":"ETOU","Latitude":null,"Timezone":465,"DST":0,"destinations":[1597]},
{"City":"Taguatinga","DBTZ":"D","Name":"Taguatinga Airport","Country":"BR","IATA/FAA":"QHN","Longitude":null,"Airport ID":"SWTY","Latitude":null,"Timezone":62,"DST":9,"destinations":[278]},
{"City":"Caia","DBTZ":"C","Name":"Caia Airport","Country":"MZ","IATA/FAA":"CMZ","Longitude":null,"Airport ID":null,"Latitude":null,"Timezone":427,"DST":-11,"destinations":[310,4903,6895]},
{"City":"Poplar Bluff","DBTZ":"A","Name":"Poplar Bluff Municipal Airport","Country":"US","IATA/FAA":"POF","Longitude":null,"Airport ID":"KPOF","Latitude":null,"Timezone":390,"DST":-4,"destinations":[7123]},
{"City":"Gasmata Island","DBTZ":"B","Name":"Gasmata Island Airport","Country":"PG","IATA/FAA":"GMI","Longitude":null,"Airport ID":"AYGT","Latitude":null,"Timezone":211,"DST":-3,"destinations":[3564]},
{"City":"Cachoeira Do Sul","DBTZ":"C","Name":"Cachoeira do Sul Airport","Country":"BR","IATA/FAA":"QDB","Longitude":null,"Airport ID":"SSKS","Latitude":null,"Timezone":137,"DST":-1,"destinations":[7410,302,1175]},
{"City":"Newry","DBTZ":"E","Name":"Newry Airport","Country":"AU","IATA/FAA":"NRY","Longitude":null,"Airport ID":null,"Latitude":null,"Timezone":60,"DST":12,"destinations":[4072,9024]},
{"City":"Koutiala","DBTZ":"E","Name":"Koutiala Airport","Country":"ML","IATA/FAA":"KTX","Longitude":null,"Airport ID":"GAKO","Latitude":null,"Timezone":247,"DST":-3,"destinations":[1198,5392]},
{"City":"Tabora","DBTZ":"B","Name":"Tabora Airport","Country":"TZ","IATA/FAA":"TBO","Longitude":null,"Airport ID":"HTTB","Latitude":null,"Timezone":342,"DST":-3,"destinations":[2701,4259,2445]},
{"City":"Barretos","DBTZ":"D","Name":"Chafei Amsei Airport","Country":"BR","IATA/FAA":"BAT","Longitude":null,"Airport ID":"SNBA","Latitude":null,"Timezone":504,"DST":-5,"destinations":[7688,4227,5330]},
{"City":"Torrance","DBTZ":"E","Name":"Zamperini Field","Country":"US","IATA/FAA":"TOA","Longitude":null,"Airport ID":"KTOA","Latitude":null,"Timezone":572,"DST":5,"destinations":[3767]},
{"City":"Yari","DBTZ":"B","Name":"Yari Airport","Country":"CO","IATA/FAA":"AYI","Longitude":null,"Airport ID":null,"Latitude":null,"Timezone":907,"DST":3,"destinations":[5611,3158]},
{"City":"Barnaul","DBTZ":"D","Name":"Barnaul Airport","Country":"RU","IATA/FAA":"BAX","Longitude":null,"Airport ID":"UNBB","Latitude":null,"Timezone":53,"DST":-3,"destinations":[6508,9718]},
{"City":"Albrook","DBTZ":"C","Name":"Marcos A. Gelabert International Airport","Country":"PA","IATA/FAA":"PAC","Longitude":null,"Airport ID":"MPMG","Latitude":null,"Timezone":233,"DST":-7,"destinations":[4908,3085,2639]},
{"City":"Ittoqqortoormiit","DBTZ":"C","Name":"Ittoqqortoormiit Heliport","Country":"GL","IATA/FAA":"OBY","Longitude":null,"Airport ID":"BGSC","Latitude":null,"Timezone":271,"DST":3,"destinations":[2319,1752,8537]},
{"City":null,"DBTZ":"B","Name":"Bourke Airport","Country":"AU","IATA/FAA":"BRK","Longitude":null,"Airport ID":"YBKE","Latitude":null,"Timezone":723,"DST":4,"destinations":[9648]},
{"City":"Kerkyra Island","DBTZ":"D","Name":"Ioannis Kapodistrias International Airport","Country":"GR","IATA/FAA":"CFU","Longitude":null,"Airport ID":"LGKR","Latitude":null,"Timezone":333,"DST":0,"destinations":[2213,5474,8726]},
{"City":"Onange Mission","DBTZ":"A","Name":"Ononge Airport","Country":"PG","IATA/FAA":"ONB","Longitude":null,"Airport ID":"AYQQ","Latitude":null,"Timezone":213,"DST":-11,"destinations":[9593,7779,2140]},
{"City":"Aiyura Valley","DBTZ":"B","Name":"Aiyura Airport","Country":"PG","IATA/FAA":"AYU","Longitude":null,"Airport ID":"AYAY","Latitude":null,"Timezone":877,"DST":2,"destinations":[7331]},
{"City":"Kasos Island","DBTZ":"D","Name":"Kasos Airport","Country":"GR","IATA/FAA":"KSJ","Longitude":null,"Airport ID":"LGKS","Latitude":null,"Timezone":691,"DST":-10,"destinations":[1244]},
{"City":"Blacksburg","DBTZ":"A","Name":"Virginia Tech Montgomery Executive Airport","Country":"US","IATA/FAA":"BCB","Longitude":null,"Airport ID":"KBCB","Latitude":null,"Timezone":899,"DST":-7,"destinations":[2089,2422,7238]},
{"City":"Batagay-Alyta","DBTZ":"C","Name":"Sakkyryr Airport","Country":"RU","IATA/FAA":"SUK","Longitude":null,"Airport ID":"UEBS","Latitude":null,"Timezone":713,"DST":10,"destinations":[1278,1636,3057]},
{"City":"Mansehra","DBTZ":"C","Name":"Mansehra Airport","Country":"PK","IATA/FAA":"HRA","Longitude":null,"Airport ID":null,"Latitude":null,"Timezone":624,"DST":-6,"destinations":[1395,712]},
{"City":null,"DBTZ":"E","Name":"Mosjøen Airport (Kjærstad)","Country":"NO","IATA/FAA":"MJF","Longitude":null,"Airport ID":"ENMS","Latitude":null,"Timezone":234,"DST":-7,"destinations":[8109,9928]},
{"City":"Al Bayda'","DBTZ":"A","Name":"La Abraq Airport","Country":"LY","IATA/FAA":"LAQ","Longitude":null,"Airport ID":"HLLQ","Latitude":null,"Timezone":408,"DST":-2,"destinations":[2091,255]},
{"City":"Agen/La Garenne","DBTZ":"B","Name":"Agen-La Garenne Airport","Country":"FR","IATA/FAA":"AGF","Longitude":null,"Airport ID":"LFBA","Latitude":null,"Timezone":558,"DST":-8,"destinations":[6628,3812,8077]},
{"City":"Solenzara","DBTZ":"C","Name":"Solenzara (BA 126) Air Base","Country":"FR","IATA/FAA":"SOZ","Longitude":null,"Airport ID":"LFKS","Latitude":null,"Timezone":935,"DST":12,"destinations":[5377]},
{"City":"Gode","DBTZ":"A","Name":"Gode Airport","Country":"ET","IATA/FAA":"GDE","Longitude":null,"Airport ID":"HAGO","Latitude":null,"Timezone":760,"DST":7,"destinations":[478,1878]},
{"City":"Lamap","DBTZ":"D","Name":"Lamap Airport","Country":"VU","IATA/FAA":"LPM","Longitude":null,"Airport ID":"NVSL","Latitude":null,"Timezone":8,"DST":-2,"destinations":[1342]},
{"City":"Santa Clara","DBTZ":"A","Name":"Abel Santamaria Airport","Country":"CU","IATA/FAA":"SNU","Longitude":null,"Airport ID":"MUSC","Latitude":null,"Timezone":87,"DST":-9,"destinations":[5835]},
{"City":"Meridian","DBTZ":"B","Name":"Key Field","Country":"US","IATA/FAA":"MEI","Longitude":null,"Airport ID":"KMEI","Latitude":null,"Timezone":605,"DST":6,"destinations":[8328,3452]},
{"City":"Roosevelt","DBTZ":"C","Name":"Roosevelt Municipal Airport","Country":"US","IATA/FAA":"ROL","Longitude":null,"Airport ID":null,"Latitude":null,"Timezone":685,"DST":-4,"destinations":[6513,2614]},
{"City":"Honolulu","DBTZ":"B","Name":"Daniel K Inouye International Airport","Country":"US","IATA/FAA":"HNL","Longitude":null,"Airport ID":"PHNL","Latitude":null,"Timezone":879,"DST":0,"destinations":[4999,623,9775]},
{"City":"Shanshan","DBTZ":"A","Name":"Shanshan Airport","Country":"CN","IATA/FAA":"SXJ","Longitude":null,"Airport ID":"ZWSS","Latitude":null,"Timezone":249,"DST":-2,"destinations":[88,1909,3374]},
{"City":"Flensburg","DBTZ":"D","Name":"Flensburg-Schäferhaus Airport","Country":"DE","IATA/FAA":"FLF","Longitude":null,"Airport ID":"EDXF","Latitude":null,"Timezone":544,"DST":-9,"destinations":[2810,6748,8852]},
{"City":"Wrocław","DBTZ":"B","Name":"Copernicus Wrocław Airport","Country":"PL","IATA/FAA":"WRO","Longitude":null,"Airport ID":"EPWR","Latitude":null,"Timezone":838,"DST":-1,"destinations":[3860,8499]},
{"City":"Vladivostok","DBTZ":"C","Name":"Vladivostok International Airport","Country":"RU","IATA/FAA":"VVO","Longitude":null,"Airport ID":"UHWW","Latitude":null,"Timezone":551,"DST":7,"destinations":[779,3286]},
{"City":"Puerto Rico/Manuripi","DBTZ":"C","Name":"Puerto Rico Airport","Country":"BO","IATA/FAA":"PUR","Longitude":null,"Airport ID":"SLPR","Latitude":null,"Timezone":44,"DST":-11,"destinations":[9196,6184]},
{"City":"Levelock","DBTZ":"B","Name":"Levelock Airport","Country":"US","IATA/FAA":"KLL","Longitude":null,"Airport ID":"9Z8","Latitude":null,"Timezone":926,"DST":-8,"destinations":[887,597]},
{"City":"Marshall","DBTZ":"C","Name":"Southwest Minnesota Regional Airport - Marshall/Ryan Field","Country":"US","IATA/FAA":"MML","Longitude":null,"Airport ID":"KMML","Latitude":null,"Timezone":256,"DST":-2,"destinations":[3660,4392]},
{"City":"Tatitlek","DBTZ":"A","Name":"Tatitlek Airport","Country":"US","IATA/FAA":"TEK","Longitude":null,"Airport ID":"PAKA","Latitude":null,"Timezone":834,"DST":1,"destinations":[3050,2035]},
{"City":null,"DBTZ":"D","Name":"Finley Airport","Country":"AU","IATA/FAA":"FLY","Longitude":null,"Airport ID":"YFIL","Latitude":null,"Timezone":162,"DST":10,"destinations":[9972]},
{"City":"Fort Mackay","DBTZ":"B","Name":"Fort Mackay / Horizon Airport","Country":"CA","IATA/FAA":"HZP","Longitude":null,"Airport ID":"CYNR","Latitude":null,"Timezone":597,"DST":8,"destinations":[9413,3410]},
{"City":"Tsushima","DBTZ":"D","Name":"Tsushima Airport","Country":"JP","IATA/FAA":"TSJ","Longitude":null,"Airport ID":"RJDT","Latitude":null,"Timezone":72,"DST":-11,"destinations":[5781,7196]},
{"City":"Ruhengeri","DBTZ":"A","Name":"Ruhengeri Airport","Country":"RW","IATA/FAA":"RHG","Longitude":null,"Airport ID":"HRYU","Latitude":null,"Timezone":815,"DST":-10,"destinations":[7835,4615,9677]},
{"City":"Welshpool","DBTZ":"B","Name":"Welshpool Airport","Country":"AU","IATA/FAA":"WHL","Longitude":null,"Airport ID":null,"Latitude":null,"Timezone":326,"DST":-11,"destinations":[8565,9364,1868]},
{"City":"Manchester","DBTZ":"C","Name":"Manchester Airport","Country":"GB","IATA/FAA":"MAN","Longitude":null,"Airport ID":"EGCC","Latitude":null,"Timezone":962,"DST":11,"destinations":[954,5746]},
{"City":null,"DBTZ":"E","Name":"Whangarei Airport","Country":"NZ","IATA/FAA":"WRE","Longitude":null,"Airport ID":"NZWR","Latitude":null,"Timezone":387,"DST":0,"destinations":[1020,6668,9532]},
{"City":"Luang Phabang","DBTZ":"A","Name":"Luang Phabang International Airport","Country":"LA","IATA/FAA":"LPQ","Longitude":null,"Airport ID":"VLLB","Latitude":null,"Timezone":792,"DST":-1,"destinations":[7028,3650]},
{"City":"Porto Velho","DBTZ":"E","Name":"Governador Jorge Teixeira de Oliveira Airport","Country":"BR","IATA/FAA":"PVH","Longitude":null,"Airport ID":"SBPV","Latitude":null,"Timezone":420,"DST":0,"destinations":[9920,2574,2208]},
{"City":"Burlington","DBTZ":"E","Name":"Burlington International Airport","Country":"US","IATA/FAA":"BTV","Longitude":null,"Airport ID":"KBTV","Latitude":null,"Timezone":701,"DST":-11,"destinations":[9216,5157]},
{"City":"High Level","DBTZ":"C","Name":"High Level Airport","Country":"CA","IATA/FAA":"YOJ","Longitude":null,"Airport ID":"CYOJ","Latitude":null,"Timezone":67,"DST":9,"destinations":[6095]},
{"City":null,"DBTZ":"D","Name":"Matamata Glider Airport","Country":"NZ","IATA/FAA":"MTA","Longitude":null,"Airport ID":"NZMA","Latitude":null,"Timezone":469,"DST":-7,"destinations":[8921]},
{"City":"Buffalo","DBTZ":"A","Name":"Buffalo Niagara International Airport","Country":"US","IATA/FAA":"BUF","Longitude":null,"Airport ID":"KBUF","Latitude":null,"Timezone":578,"DST":7,"destinations":[713,1300]},
{"City":"Walla Walla","DBTZ":"D","Name":"Walla Walla Regional Airport","Country":"US","IATA/FAA":"ALW","Longitude":null,"Airport ID":"KALW","Latitude":null,"Timezone":646,"DST":4,"destinations":[8568]},
{"City":"Rivne","DBTZ":"A","Name":"Rivne International Airport","Country":"UA","IATA/FAA":"RWN","Longitude":null,"Airport ID":"UKLR","Latitude":null,"Timezone":866,"DST":4,"destinations":[8823]},
{"City":"Ponta do Ouro","DBTZ":"C","Name":"Ponta do Ouro Airport","Country":"MZ","IATA/FAA":"PDD","Longitude":null,"Airport ID":"FQPO","Latitude":null,"Timezone":307,"DST":9,"destinations":[4784,3619]},
{"City":"Jiuzhaigou","DBTZ":"C","Name":"Jiuzhai Huanglong Airport","Country":"CN","IATA/FAA":"JZH","Longitude":null,"Airport ID":"ZUJZ","Latitude":null,"Timezone":391,"DST":8,"destinations":[8553,4503]},
{"City":"Port Hope Simpson","DBTZ":"B","Name":"Port Hope Simpson Airport","Country":"CA","IATA/FAA":"YHA","Longitude":null,"Airport ID":"CCP4","Latitude":null,"Timezone":379,"DST":6,"destinations":[4671,1688]},
{"City":"Cape Gloucester","DBTZ":"A","Name":"Cape Gloucester Airport","Country":"PG","IATA/FAA":"CGC","Longitude":null,"Airport ID":"AYCG","Latitude":null,"Timezone":379,"DST":-7,"destinations":[8993,5553]},
{"City":"Santa Ana Island","DBTZ":"A","Name":"Santa Ana Airport","Country":"SB","IATA/FAA":"NNB","Longitude":null,"Airport ID":"AGGT","Latitude":null,"Timezone":365,"DST":-1,"destinations":[6833,2298,8298]},
{"City":"Moolawatana Station","DBTZ":"E","Name":"Moolawatana Airport","Country":"AU","IATA/FAA":"MWT","Longitude":null,"Airport ID":"YMWT","Latitude":null,"Timezone":165,"DST":-8,"destinations":[5243]},
{"City":"Hope Bay","DBTZ":"E","Name":"Doris Lake","Country":"CA","IATA/FAA":"JOJ","Longitude":null,"Airport ID":null,"Latitude":null,"Timezone":974,"DST":-2,"destinations":[1669]},
{"City":"Puntarenas","DBTZ":"E","Name":"Chacarita Airport","Country":"CR","IATA/FAA":"JAP","Longitude":null,"Airport ID":"MRCH","Latitude":null,"Timezone":855,"DST":-6,"destinations":[863,4830]},
{"City":"Lissadell Station","DBTZ":"E","Name":"Lissadell Airport","Country":"AU","IATA/FAA":"LLL","Longitude":null,"Airport ID":null,"Latitude":null,"Timezone":152,"DST":-9,"destinations":[5627,5067]},
{"City":"Chokwé","DBTZ":"A","Name":"Chokwé Airport","Country":"MZ","IATA/FAA":"TGS","Longitude":null,"Airport ID":null,"Latitude":null,"Timezone":183,"DST":9,"destinations":[9853]},
{"City":null,"DBTZ":"E","Name":"Lawn Hill Airport","Country":"AU","IATA/FAA":"LWH","Longitude":null,"Airport ID":"YLAH","Latitude":null,"Timezone":752,"DST":-12,"destinations":[1935,3870,2155]},
{"City":"Zephyrhills","DBTZ":"D","Name":"Zephyrhills Municipal Airport","Country":"US","IATA/FAA":"ZPH","Longitude":null,"Airport ID":"KZPH","Latitude":null,"Timezone":738,"DST":10,"destinations":[108]},
{"City":"San Antonio","DBTZ":"E","Name":"San Antonio International Airport","Country":"US","IATA/FAA":"SAT","Longitude":null,"Airport ID":"KSAT","Latitude":null,"Timezone":253,"DST":8,"destinations":[2510]},
{"City":"Billings","DBTZ":"B","Name":"Billings Logan International Airport","Country":"US","IATA/FAA":"BIL","Longitude":null,"Airport ID":"KBIL","Latitude":null,"Timezone":932,"DST":11,"destinations":[6249,1793]},
{"City":"Urgench","DBTZ":"E","Name":"Urgench Airport","Country":"UZ","IATA/FAA":"UGC","Longitude":null,"Airport ID":"UTNU","Latitude":null,"Timezone":508,"DST":8,"destinations":[4179]},
{"City":"Tarapaina","DBTZ":"A","Name":"Tarapaina Airport","Country":"SB","IATA/FAA":"TAA","Longitude":null,"Airport ID":null,"Latitude":null,"Timezone":770,"DST":-4,"destinations":[8431,8521,2943]},
{"City":"Tizimin","DBTZ":"A","Name":"Cupul Airport","Country":"MX","IATA/FAA":"TZM","Longitude":null,"Airport ID":"MM72","Latitude":null,"Timezone":246,"DST":1,"destinations":[1234,4438,7149]},
{"City":"Guadalupe","DBTZ":"D","Name":"Guadalupe Airport","Country":"BR","IATA/FAA":"GDP","Longitude":null,"Airport ID":"SNGD","Latitude":null,"Timezone":844,"DST":-12,"destinations":[5856,5448,8611]},
{"City":"Seattle","DBTZ":"A","Name":"Boeing Field King County International Airport","Country":"US","IATA/FAA":"BFI","Longitude":null,"Airport ID":"KBFI","Latitude":null,"Timezone":663,"DST":-8,"destinations":[9714]},
{"City":"Barahona","DBTZ":"A","Name":"Maria Montez International Airport","Country":"DO","IATA/FAA":"BRX","Longitude":null,"Airport ID":"MDBH","Latitude":null,"Timezone":403,"DST":0,"destinations":[3834,7045,7148]},
{"City":"Trinidad","DBTZ":"D","Name":"Alberto Delgado Airport","Country":"CU","IATA/FAA":"TND","Longitude":null,"Airport ID":"MUTD","Latitude":null,"Timezone":895,"DST":-11,"destinations":[5612]},
{"City":"Óbidos","DBTZ":"A","Name":"Óbidos Airport","Country":"BR","IATA/FAA":"OBI","Longitude":null,"Airport ID":"SNTI","Latitude":null,"Timezone":270,"DST":-7,"destinations":[348]},
{"City":"Courcheval","DBTZ":"A","Name":"Courchevel Airport","Country":"FR","IATA/FAA":"CVF","Longitude":null,"Airport ID":"LFLJ","Latitude":null,"Timezone":316,"DST":0,"destinations":[1492]},
{"City":"Theda Station","DBTZ":"B","Name":"Theda Station Airport","Country":"AU","IATA/FAA":"TDN","Longitude":null,"Airport ID":"YTHD","Latitude":null,"Timezone":570,"DST":-9,"destinations":[9613,3801,1815]},
{"City":"Campinas","DBTZ":"C","Name":"Amarais Airport","Country":"BR","IATA/FAA":"CPQ","Longitude":null,"Airport ID":"SDAM","Latitude":null,"Timezone":654,"DST":-5,"destinations":[6063,313]},
{"City":"Prishtina","DBTZ":"A","Name":"Priština International Airport","Country":"XK","IATA/FAA":"PRN","Longitude":null,"Airport ID":"BKPR","Latitude":null,"Timezone":733,"DST":11,"destinations":[4030,7265,8049]},
{"City":"Gorno-Altaysk","DBTZ":"B","Name":"Gorno-Altaysk Airport","Country":"RU","IATA/FAA":"RGK","Longitude":null,"Airport ID":"UNBG","Latitude":null,"Timezone":393,"DST":11,"destinations":[7451]},
{"City":"Quimper/Pluguffan","DBTZ":"E","Name":"Quimper-Cornouaille Airport","Country":"FR","IATA/FAA":"UIP","Longitude":null,"Airport ID":"LFRQ","Latitude":null,"Timezone":380,"DST":0,"destinations":[692,2261]},
{"City":"Burwash","DBTZ":"A","Name":"Burwash Airport","Country":"CA","IATA/FAA":"YDB","Longitude":null,"Airport ID":"CYDB","Latitude":null,"Timezone":704,"DST":3,"destinations":[4403,9638]},
{"City":"Derry","DBTZ":"C","Name":"City of Derry Airport","Country":"GB","IATA/FAA":"LDY","Longitude":null,"Airport ID":"EGAE","Latitude":null,"Timezone":840,"DST":7,"destinations":[8499,550,1255]},
{"City":"Alexandroupolis","DBTZ":"D","Name":"Dimokritos Airport","Country":"GR","IATA/FAA":"AXD","Longitude":null,"Airport ID":"LGAL","Latitude":null,"Timezone":467,"DST":-3,"destinations":[8404]},
{"City":"Mombaça","DBTZ":"C","Name":"Mombaça Airport","Country":"BR","IATA/FAA":"0","Longitude":null,"Airport ID":"SNMB","Latitude":null,"Timezone":235,"DST":-2,"destinations":[7545,4047,6465]},
{"City":"Kaolack","DBTZ":"E","Name":"Kaolack Airport","Country":"SN","IATA/FAA":"KLC","Longitude":null,"Airport ID":"GOOK","Latitude":null,"Timezone":572,"DST":-8,"destinations":[381,2033,9844]},
{"City":"Ouvéa","DBTZ":"A","Name":"Ouvéa Airport","Country":"NC","IATA/FAA":"UVE","Longitude":null,"Airport ID":"NWWV","Latitude":null,"Timezone":269,"DST":-1,"destinations":[3925,7629,3873]},
{"City":"Gdynia","DBTZ":"E","Name":"Oksywie Military Air Base","Country":"PL","IATA/FAA":"QYD","Longitude":null,"Airport ID":"EPOK","Latitude":null,"Timezone":308,"DST":8,"destinations":[3679,2289,2108]},
{"City":"Sevilla","DBTZ":"C","Name":"Sevilla Airport","Country":"ES","IATA/FAA":"SVQ","Longitude":null,"Airport ID":"LEZL","Latitude":null,"Timezone":192,"DST":5,"destinations":[5743,8851,1421]},
{"City":"American River","DBTZ":"A","Name":"American River Airport","Country":"AU","IATA/FAA":"RCN","Longitude":null,"Airport ID":null,"Latitude":null,"Timezone":491,"DST":-9,"destinations":[191,4199]},
{"City":"Arar","DBTZ":"C","Name":"Arar Domestic Airport","Country":"SA","IATA/FAA":"RAE","Longitude":null,"Airport ID":"OERR","Latitude":null,"Timezone":975,"DST":12,"destinations":[8911,9988,931]},
{"City":"Sturgeon Bay","DBTZ":"D","Name":"Door County Cherryland Airport","Country":"US","IATA/FAA":"SUE","Longitude":null,"Airport ID":"KSUE","Latitude":null,"Timezone":556,"DST":8,"destinations":[2332]},
{"City":"San Salvador de Paul","DBTZ":"B","Name":"San Salvador de Paul Airport","Country":"VE","IATA/FAA":"SVV","Longitude":null,"Airport ID":null,"Latitude":null,"Timezone":237,"DST":12,"destinations":[1040]},
{"City":"Sartaneja","DBTZ":"D","Name":"Sartaneja Airport","Country":"BZ","IATA/FAA":"SJX","Longitude":null,"Airport ID":null,"Latitude":null,"Timezone":944,"DST":-6,"destinations":[4909,3506,1067]},
{"City":"Roberval","DBTZ":"A","Name":"Roberval Airport","Country":"CA","IATA/FAA":"YRJ","Longitude":null,"Airport ID":"CYRJ","Latitude":null,"Timezone":813,"DST":-4,"destinations":[3884,260]},
{"City":"Nassau","DBTZ":"E","Name":"Lynden Pindling International Airport","Country":"BS","IATA/FAA":"NAS","Longitude":null,"Airport ID":"MYNN","Latitude":null,"Timezone":258,"DST":-3,"destinations":[7890]},
{"City":"Tingwon Island","DBTZ":"D","Name":"Tingwon Airport","Country":"PG","IATA/FAA":"TIG","Longitude":null,"Airport ID":null,"Latitude":null,"Timezone":651,"DST":7,"destinations":[447,7751]},
{"City":"Siguiri","DBTZ":"E","Name":"Siguiri Airport","Country":"GN","IATA/FAA":"GII","Longitude":null,"Airport ID":"GUSI","Latitude":null,"Timezone":516,"DST":2,"destinations":[8223]},
{"City":"West Memphis","DBTZ":"B","Name":"West Memphis Municipal Airport","Country":"US","IATA/FAA":"AWM","Longitude":null,"Airport ID":"KAWM","Latitude":null,"Timezone":130,"DST":2,"destinations":[2137,1084]},
{"City":"Quebec","DBTZ":"E","Name":"Quebec Jean Lesage International Airport","Country":"CA","IATA/FAA":"YQB","Longitude":null,"Airport ID":"CYQB","Latitude":null,"Timezone":161,"DST":-2,"destinations":[9734,9044]},
{"City":"Ilo","DBTZ":"C","Name":"Ilo Airport","Country":"PE","IATA/FAA":"ILQ","Longitude":null,"Airport ID":"SPLO","Latitude":null,"Timezone":52,"DST":7,"destinations":[1775]},
{"City":"Meridian","DBTZ":"E","Name":"Key Field","Country":"US","IATA/FAA":"MEI","Longitude":null,"Airport ID":"KMEI","Latitude":null,"Timezone":357,"DST":1,"destinations":[9063,85,9884]},
{"City":"Xinguara","DBTZ":"C","Name":"Xinguara Municipal Airport","Country":"BR","IATA/FAA":"XIG","Longitude":null,"Airport ID":null,"Latitude":null,"Timezone":993,"DST":6,"destinations":[3733]},
{"City":null,"DBTZ":"C","Name":"Carmel Valley","Country":"US","IATA/FAA":"O62","Longitude":null,"Airport ID":null,"Latitude":null,"Timezone":30,"DST":-3,"destinations":[3337,3039,5823]},
{"City":"Cangamba","DBTZ":"C","Name":"Cangamba Airport","Country":"AO","IATA/FAA":"CNZ","Longitude":null,"Airport ID":null,"Latitude":null,"Timezone":429,"DST":-7,"destinations":[3704,196,2478]},
{"City":"Bo","DBTZ":"A","Name":"Bo Airport","Country":"SL","IATA/FAA":"KBS","Longitude":null,"Airport ID":"GFBO","Latitude":null,"Timezone":963,"DST":-11,"destinations":[4378,915,2859]},
{"City":"Lubumbashi","DBTZ":"A","Name":"Lubumbashi International Airport","Country":"CD","IATA/FAA":"FBM","Longitude":null,"Airport ID":"FZQA","Latitude":null,"Timezone":393,"DST":-9,"destinations":[1675]},
{"City":"St. John's","DBTZ":"B","Name":"V.C. Bird International Airport","Country":"AG","IATA/FAA":"ANU","Longitude":null,"Airport ID":"TAPA","Latitude":null,"Timezone":968,"DST":12,"destinations":[7512,752]},
{"City":"Nizhny Novgorod","DBTZ":"B","Name":"Nizhny Novgorod Strigino International Airport","Country":"RU","IATA/FAA":"GOJ","Longitude":null,"Airport ID":"UWGG","Latitude":null,"Timezone":49,"DST":6,"destinations":[6370,5884]},
{"City":"Reykhólar","DBTZ":"C","Name":"Reykhólar Airport","Country":"IS","IATA/FAA":"RHA","Longitude":null,"Airport ID":"BIRE","Latitude":null,"Timezone":1,"DST":5,"destinations":[1025,5807]},
{"City":"Thiruvananthapuram","DBTZ":"E","Name":"Trivandrum International Airport","Country":"IN","IATA/FAA":"TRV","Longitude":null,"Airport ID":"VOTV","Latitude":null,"Timezone":404,"DST":-8,"destinations":[8020]},
{"City":"Yeva","DBTZ":"C","Name":"Yeva Airport","Country":"PG","IATA/FAA":"YVD","Longitude":null,"Airport ID":"AYXE","Latitude":null,"Timezone":638,"DST":0,"destinations":[5621,4986]},
{"City":"Turukhansk","DBTZ":"B","Name":"Turukhansk Airport","Country":"RU","IATA/FAA":"THX","Longitude":null,"Airport ID":"UOTT","Latitude":null,"Timezone":931,"DST":-10,"destinations":[9119,6451]},
{"City":null,"DBTZ":"D","Name":"Wanaka Airport","Country":"NZ","IATA/FAA":"WKA","Longitude":null,"Airport ID":"NZWF","Latitude":null,"Timezone":971,"DST":2,"destinations":[530]},
{"City":"Zaragoza","DBTZ":"A","Name":"Zaragoza Air Base","Country":"ES","IATA/FAA":"ZAZ","Longitude":null,"Airport ID":"LEZG","Latitude":null,"Timezone":138,"DST":-4,"destinations":[5224,693,2665]},
{"City":"San Antonio","DBTZ":"A","Name":"Lackland Air Force Base","Country":"US","IATA/FAA":"SKF","Longitude":null,"Airport ID":"KSKF","Latitude":null,"Timezone":267,"DST":9,"destinations":[9194,2216,4746]},
{"City":"Nepesi","DBTZ":"E","Name":"Param Airport","Country":"PG","IATA/FAA":"PPX","Longitude":null,"Airport ID":null,"Latitude":null,"Timezone":669,"DST":1,"destinations":[6378]},
{"City":"Böblingen","DBTZ":"C","Name":"Böblingen Flugfeld","Country":"DE","IATA/FAA":"PHM","Longitude":null,"Airport ID":null,"Latitude":null,"Timezone":525,"DST":-9,"destinations":[8404]},
{"City":"Chile Chico","DBTZ":"D","Name":"Chile Chico Airport","Country":"CL","IATA/FAA":"CCH","Longitude":null,"Airport ID":"SCCC","Latitude":null,"Timezone":975,"DST":-12,"destinations":[5213,6252,5644]},
{"City":"Mamai","DBTZ":"C","Name":"Mamai Airport","Country":"PG","IATA/FAA":"MAP","Longitude":null,"Airport ID":null,"Latitude":null,"Timezone":586,"DST":-8,"destinations":[4695]},
{"City":"Kelso","DBTZ":"D","Name":"Southwest Washington Regional Airport","Country":"US","IATA/FAA":"KLS","Longitude":null,"Airport ID":"KKLS","Latitude":null,"Timezone":930,"DST":-7,"destinations":[7773]},
{"City":"Saqani, Cakaudrove","DBTZ":"E","Name":"Biaugunu Airport","Country":"FJ","IATA/FAA":"AQS","Longitude":null,"Airport ID":"NFBG","Latitude":null,"Timezone":923,"DST":1,"destinations":[9852,8205]},
{"City":"Farnborough","DBTZ":"C","Name":"Farnborough Airport","Country":"GB","IATA/FAA":"FAB","Longitude":null,"Airport ID":"EGLF","Latitude":null,"Timezone":528,"DST":1,"destinations":[1471,4410,9897]},
{"City":"Halmstad","DBTZ":"C","Name":"Halmstad Airport","Country":"SE","IATA/FAA":"HAD","Longitude":null,"Airport ID":"ESMT","Latitude":null,"Timezone":247,"DST":-10,"destinations":[8922]},
{"City":"Heho","DBTZ":"C","Name":"Heho Airport","Country":"MM","IATA/FAA":"HEH","Longitude":null,"Airport ID":"VYHH","Latitude":null,"Timezone":817,"DST":-11,"destinations":[2694,4890,8420]},
{"City":"Massena","DBTZ":"E","Name":"Massena International Richards Field","Country":"US","IATA/FAA":"MSS","Longitude":null,"Airport ID":"KMSS","Latitude":null,"Timezone":94,"DST":-2,"destinations":[3896,9218,5523]},
{"City":"Mary","DBTZ":"A","Name":"Mary Airport","Country":"TM","IATA/FAA":"MYP","Longitude":null,"Airport ID":"UTAM","Latitude":null,"Timezone":92,"DST":5,"destinations":[2833,1640,1149]},
{"City":"Ulan Bator","DBTZ":"E","Name":"Chinggis Khaan International Airport","Country":"MN","IATA/FAA":"ULN","Longitude":null,"Airport ID":"ZMUB","Latitude":null,"Timezone":34,"DST":12,"destinations":[2347]},
{"City":"Oxford House","DBTZ":"C","Name":"Oxford House Airport","Country":"CA","IATA/FAA":"YOH","Longitude":null,"Airport ID":"CYOH","Latitude":null,"Timezone":996,"DST":12,"destinations":[4396,8213,3007]},
{"City":"Whatì","DBTZ":"E","Name":"Whatì Airport","Country":"CA","IATA/FAA":"YLE","Longitude":null,"Airport ID":"CEM3","Latitude":null,"Timezone":258,"DST":-1,"destinations":[1312,9578,4874]},
{"City":null,"DBTZ":"E","Name":"Ambilobe Airport","Country":"MG","IATA/FAA":"AMB","Longitude":null,"Airport ID":"FMNE","Latitude":null,"Timezone":940,"DST":10,"destinations":[5555,4910]},
{"City":null,"DBTZ":"E","Name":"Bulimba Airport","Country":"AU","IATA/FAA":"BIP","Longitude":null,"Airport ID":"YBWM","Latitude":null,"Timezone":827,"DST":-8,"destinations":[7472,5859]},
{"City":"Musina","DBTZ":"A","Name":"Musina(Messina) Airport","Country":"ZA","IATA/FAA":"MEZ","Longitude":null,"Airport ID":"FAMH","Latitude":null,"Timezone":276,"DST":3,"destinations":[4840,414,3448]},
{"City":"Porto Cheli","DBTZ":"A","Name":"Porto Cheli Airport","Country":"GR","IATA/FAA":"PKH","Longitude":null,"Airport ID":"LGHL","Latitude":null,"Timezone":502,"DST":9,"destinations":[7566,3389]},
{"City":"Sterling","DBTZ":"B","Name":"Sterling Municipal Airport","Country":"US","IATA/FAA":"STK","Longitude":null,"Airport ID":"KSTK","Latitude":null,"Timezone":182,"DST":-9,"destinations":[5484,5209]},
{"City":"Altai","DBTZ":"B","Name":"Altai Airport","Country":"MN","IATA/FAA":"LTI","Longitude":null,"Airport ID":"ZMAT","Latitude":null,"Timezone":789,"DST":9,"destinations":[9705,1129]},
{"City":"Vernon","DBTZ":"E","Name":"Vernon Airport","Country":"CA","IATA/FAA":"YVE","Longitude":null,"Airport ID":"CYVK","Latitude":null,"Timezone":700,"DST":-7,"destinations":[5166]},
{"City":"Inverell","DBTZ":"B","Name":"Inverell Airport","Country":"AU","IATA/FAA":"IVR","Longitude":null,"Airport ID":"YIVL","Latitude":null,"Timezone":968,"DST":12,"destinations":[9894,8879]},
{"City":"Minvoul","DBTZ":"C","Name":"Minvoul Airport","Country":"GA","IATA/FAA":"MVX","Longitude":null,"Airport ID":"FOGV","Latitude":null,"Timezone":51,"DST":3,"destinations":[7352,2997]},
{"City":null,"DBTZ":"D","Name":"Siocon Airport","Country":"PH","IATA/FAA":"XSO","Longitude":null,"Airport ID":"PRNO","Latitude":null,"Timezone":802,"DST":9,"destinations":[6835]},
{"City":"Taylor","DBTZ":"C","Name":"Taylor Airport","Country":"US","IATA/FAA":"TYZ","Longitude":null,"Airport ID":"KTYL","Latitude":null,"Timezone":825,"DST":-4,"destinations":[1378,1827]},
{"City":"Mili Island","DBTZ":"E","Name":"Mili Island Airport","Country":"MH","IATA/FAA":"MIJ","Longitude":null,"Airport ID":"MLIP","Latitude":null,"Timezone":346,"DST":-12,"destinations":[3802,5026]},
{"City":"Santa Cruz del Quiche","DBTZ":"A","Name":"Santa Cruz del Quiche Airport","Country":"GT","IATA/FAA":"AQB","Longitude":null,"Airport ID":"MGQC","Latitude":null,"Timezone":739,"DST":-12,"destinations":[8747]},
{"City":"Gnarowein","DBTZ":"B","Name":"Gnarowein Airport","Country":"PG","IATA/FAA":"GWN","Longitude":null,"Airport ID":null,"Latitude":null,"Timezone":819,"DST":4,"destinations":[8847]},
{"City":"Matamoros","DBTZ":"B","Name":"General Servando Canales International Airport","Country":"MX","IATA/FAA":"MAM","Longitude":null,"Airport ID":"MMMA","Latitude":null,"Timezone":989,"DST":5,"destinations":[7689,9818,2837]},
{"City":"Bordj Badji Mokhtar","DBTZ":"C","Name":"Bordj Badji Mokhtar Airport","Country":"DZ","IATA/FAA":"BMW","Longitude":null,"Airport ID":"DATM","Latitude":null,"Timezone":951,"DST":9,"destinations":[5523]},
{"City":"Tehachapi","DBTZ":"D","Name":"Tehachapi Municipal Airport","Country":"US","IATA/FAA":"TSP","Longitude":null,"Airport ID":"KTSP","Latitude":null,"Timezone":83,"DST":3,"destinations":[4616,9043,7762]},
{"City":"Borkum","DBTZ":"D","Name":"Borkum Airport","Country":"DE","IATA/FAA":"BMK","Longitude":null,"Airport ID":"EDWR","Latitude":null,"Timezone":439,"DST":6,"destinations":[3163]},
{"City":"Bengkulu-Sumatra Island","DBTZ":"C","Name":"Fatmawati Soekarno Airport","Country":"ID","IATA/FAA":"BKS","Longitude":null,"Airport ID":"WIGG","Latitude":null,"Timezone":392,"DST":-6,"destinations":[6540,3870,6253]},
{"City":"Kadanwari","DBTZ":"A","Name":"Kadanwari Airport","Country":"PK","IATA/FAA":"KCF","Longitude":null,"Airport ID":"OPKW","Latitude":null,"Timezone":875,"DST":-9,"destinations":[5080]},
{"City":"Alamogordo","DBTZ":"B","Name":"Holloman Air Force Base","Country":"US","IATA/FAA":"HMN","Longitude":null,"Airport ID":"KHMN","Latitude":null,"Timezone":385,"DST":-9,"destinations":[625,5168,8569]},
{"City":"Moyale","DBTZ":"A","Name":"Moyale Airport","Country":"ET","IATA/FAA":"MYS","Longitude":null,"Airport ID":null,"Latitude":null,"Timezone":830,"DST":12,"destinations":[5242,2893,4294]},
{"City":"Breckenridge","DBTZ":"D","Name":"Stephens County Airport","Country":"US","IATA/FAA":"BKD","Longitude":null,"Airport ID":"KBKD","Latitude":null,"Timezone":384,"DST":7,"destinations":[8974,2593,8264]},
{"City":"Tarija","DBTZ":"E","Name":"Capitan Oriel Lea Plaza Airport","Country":"BO","IATA/FAA":"TJA","Longitude":null,"Airport ID":"SLTJ","Latitude":null,"Timezone":410,"DST":2,"destinations":[3382]},
{"City":"Mwanza","DBTZ":"A","Name":"Mwanza Airport","Country":"TZ","IATA/FAA":"MWZ","Longitude":null,"Airport ID":"HTMW","Latitude":null,"Timezone":98,"DST":-7,"destinations":[4334,9217]},
{"City":"Independence","DBTZ":"B","Name":"Independence Municipal Airport","Country":"US","IATA/FAA":"IDP","Longitude":null,"Airport ID":"KIDP","Latitude":null,"Timezone":476,"DST":0,"destinations":[1814,1193,3943]},
{"City":"Habi","DBTZ":"A","Name":"Habi Airport","Country":"PG","IATA/FAA":"HBD","Longitude":null,"Airport ID":"AYHB","Latitude":null,"Timezone":995,"DST":11,"destinations":[1905,5537,8630]},
{"City":"Price","DBTZ":"E","Name":"Carbon County Regional/Buck Davis Field","Country":"US","IATA/FAA":"PUC","Longitude":null,"Airport ID":"KPUC","Latitude":null,"Timezone":78,"DST":7,"destinations":[2697]},
{"City":"Colonel Hill","DBTZ":"E","Name":"Colonel Hill Airport","Country":"BS","IATA/FAA":"CRI","Longitude":null,"Airport ID":"MYCI","Latitude":null,"Timezone":546,"DST":10,"destinations":[4910,6502,7866]},
{"City":"Anchorage","DBTZ":"E","Name":"Elmendorf Air Force Base","Country":"US","IATA/FAA":"EDF","Longitude":null,"Airport ID":"PAED","Latitude":null,"Timezone":712,"DST":-8,"destinations":[3696,2380]},
{"City":"Kyauktu","DBTZ":"C","Name":"Kyauktu Airport","Country":"MM","IATA/FAA":"KYT","Longitude":null,"Airport ID":"VYKU","Latitude":null,"Timezone":141,"DST":-6,"destinations":[9858,3166]},
{"City":"Da Lat","DBTZ":"A","Name":"Lien Khuong Airport","Country":"VN","IATA/FAA":"DLI","Longitude":null,"Airport ID":"VVDL","Latitude":null,"Timezone":703,"DST":-10,"destinations":[7528,5436,4298]},
{"City":"Duncan","DBTZ":"B","Name":"Duncan Airport","Country":"CA","IATA/FAA":"DUQ","Longitude":null,"Airport ID":"CAM3","Latitude":null,"Timezone":737,"DST":-9,"destinations":[8130,1183]},
{"City":"Muskrat Dam","DBTZ":"A","Name":"Muskrat Dam Airport","Country":"CA","IATA/FAA":"MSA","Longitude":null,"Airport ID":"CZMD","Latitude":null,"Timezone":546,"DST":-8,"destinations":[9749,3382,4292]},
{"City":"Burns Lake","DBTZ":"E","Name":"Burns Lake Airport","Country":"CA","IATA/FAA":"YPZ","Longitude":null,"Airport ID":"CYPZ","Latitude":null,"Timezone":28,"DST":5,"destinations":[6718,4417]},
{"City":"Louisburg","DBTZ":"A","Name":"Triangle North Executive Airport","Country":"US","IATA/FAA":"LFN","Longitude":null,"Airport ID":"KLHZ","Latitude":null,"Timezone":691,"DST":-1,"destinations":[9769]},
{"City":"Khovd","DBTZ":"C","Name":"Khovd Airport","Country":"MN","IATA/FAA":"HVD","Longitude":null,"Airport ID":"ZMKD","Latitude":null,"Timezone":635,"DST":1,"destinations":[6286]},
{"City":"Touba","DBTZ":"E","Name":"Mahana Airport","Country":"CI","IATA/FAA":"TOZ","Longitude":null,"Airport ID":"DITM","Latitude":null,"Timezone":819,"DST":2,"destinations":[9673]},
{"City":"Fontanges","DBTZ":"B","Name":"Fontanges Airport","Country":"CA","IATA/FAA":"YFG","Longitude":null,"Airport ID":"CTU2","Latitude":null,"Timezone":695,"DST":8,"destinations":[5676,1384]},
{"City":"Ord River","DBTZ":"B","Name":"Ord River Airport","Country":"AU","IATA/FAA":"ODR","Longitude":null,"Airport ID":"YORV","Latitude":null,"Timezone":688,"DST":10,"destinations":[7209,4410,9087]},
{"City":"Redwood Falls","DBTZ":"C","Name":"Redwood Falls Municipal Airport","Country":"US","IATA/FAA":"RWF","Longitude":null,"Airport ID":"KRWF","Latitude":null,"Timezone":195,"DST":-7,"destinations":[8625,3306]},
{"City":"Lajamanu","DBTZ":"C","Name":"Hooker Creek Airport","Country":"AU","IATA/FAA":"HOK","Longitude":null,"Airport ID":"YHOO","Latitude":null,"Timezone":934,"DST":12,"destinations":[7642,7748]},
{"City":"Greenwood","DBTZ":"B","Name":"CFB Greenwood","Country":"CA","IATA/FAA":"YZX","Longitude":null,"Airport ID":"CYZX","Latitude":null,"Timezone":436,"DST":-8,"destinations":[1195]},
{"City":"Ibiza","DBTZ":"B","Name":"Ibiza Airport","Country":"ES","IATA/FAA":"IBZ","Longitude":null,"Airport ID":"LEIB","Latitude":null,"Timezone":594,"DST":5,"destinations":[3858]},
{"City":"Angel Fire","DBTZ":"D","Name":"Angel Fire Airport","Country":"US","IATA/FAA":"AXX","Longitude":null,"Airport ID":"KAXX","Latitude":null,"Timezone":313,"DST":9,"destinations":[4234]},
{"City":"Thomasville","DBTZ":"B","Name":"Thomasville Regional Airport","Country":"US","IATA/FAA":"TVI","Longitude":null,"Airport ID":"KTVI","Latitude":null,"Timezone":38,"DST":-3,"destinations":[450,1232]},
{"City":"Tauta","DBTZ":"E","Name":"Tauta Airport","Country":"PG","IATA/FAA":"TUT","Longitude":null,"Airport ID":null,"Latitude":null,"Timezone":655,"DST":-5,"destinations":[7590,346,9345]},
{"City":"La Grande Rivière","DBTZ":"D","Name":"La Grande Rivière Airport","Country":"CA","IATA/FAA":"YGL","Longitude":null,"Airport ID":"CYGL","Latitude":null,"Timezone":406,"DST":3,"destinations":[3784,928,5985]},
{"City":"Bakalalan","DBTZ":"B","Name":"Bakalalan Airport","Country":"MY","IATA/FAA":"BKM","Longitude":null,"Airport ID":"WBGQ","Latitude":null,"Timezone":830,"DST":3,"destinations":[6303,2309]},
{"City":"Sélibaby","DBTZ":"B","Name":"Sélibaby Airport","Country":"MR","IATA/FAA":"SEY","Longitude":null,"Airport ID":"GQNS","Latitude":null,"Timezone":399,"DST":7,"destinations":[8820]},
{"City":"Dehradun","DBTZ":"E","Name":"Dehradun Airport","Country":"IN","IATA/FAA":"DED","Longitude":null,"Airport ID":"VIDN","Latitude":null,"Timezone":872,"DST":7,"destinations":[8296]},
{"City":"Hargeisa","DBTZ":"B","Name":"Egal International Airport","Country":"SO","IATA/FAA":"HGA","Longitude":null,"Airport ID":"HCMH","Latitude":null,"Timezone":470,"DST":7,"destinations":[2509]},
{"City":"Lublin","DBTZ":"A","Name":"Lublin Airport","Country":"PL","IATA/FAA":"LUZ","Longitude":null,"Airport ID":"EPLB","Latitude":null,"Timezone":867,"DST":8,"destinations":[5889,9127,193]},
{"City":"Stockton","DBTZ":"C","Name":"Stockton Metropolitan Airport","Country":"US","IATA/FAA":"SCK","Longitude":null,"Airport ID":"KSCK","Latitude":null,"Timezone":690,"DST":2,"destinations":[1560]},
{"City":"Tokoname","DBTZ":"D","Name":"Chubu Centrair International Airport","Country":"JP","IATA/FAA":"NGO","Longitude":null,"Airport ID":"RJGG","Latitude":null,"Timezone":54,"DST":6,"destinations":[5384]},
{"City":null,"DBTZ":"A","Name":"Betoota Airport","Country":"AU","IATA/FAA":"BTX","Longitude":null,"Airport ID":"YBEO","Latitude":null,"Timezone":401,"DST":12,"destinations":[1769]},
{"City":"Vatry","DBTZ":"E","Name":"Châlons-Vatry Airport","Country":"FR","IATA/FAA":"XCR","Longitude":null,"Airport ID":"LFOK","Latitude":null,"Timezone":765,"DST":3,"destinations":[256,2133]},
{"City":"Sue Islet","DBTZ":"E","Name":"Warraber Island Airport","Country":"AU","IATA/FAA":"SYU","Longitude":null,"Airport ID":"YWBS","Latitude":null,"Timezone":390,"DST":-10,"destinations":[1654]},
{"City":"Guaporé","DBTZ":"C","Name":"Guaporé Airport","Country":"BR","IATA/FAA":"0","Longitude":null,"Airport ID":"SSGR","Latitude":null,"Timezone":782,"DST":3,"destinations":[5964,729,4059]},
{"City":"Ely","DBTZ":"B","Name":"Ely Airport Yelland Field","Country":"US","IATA/FAA":"ELY","Longitude":null,"Airport ID":"KELY","Latitude":null,"Timezone":84,"DST":4,"destinations":[5950]},
{"City":"Fresno","DBTZ":"C","Name":"Fresno Chandler Executive Airport","Country":"US","IATA/FAA":"FCH","Longitude":null,"Airport ID":"KFCH","Latitude":null,"Timezone":457,"DST":-4,"destinations":[8396]},
{"City":"Seattle","DBTZ":"C","Name":"Boeing Field King County International Airport","Country":"US","IATA/FAA":"BFI","Longitude":null,"Airport ID":"KBFI","Latitude":null,"Timezone":661,"DST":-6,"destinations":[8765,7844,5011]},
{"City":"Skive","DBTZ":"B","Name":"Skive Airport","Country":"DK","IATA/FAA":"SQW","Longitude":null,"Airport ID":"EKSV","Latitude":null,"Timezone":75,"DST":-11,"destinations":[6344]},
{"City":"Great Falls","DBTZ":"D","Name":"Malmstrom Air Force Base","Country":"US","IATA/FAA":"GFA","Longitude":null,"Airport ID":"KGFA","Latitude":null,"Timezone":597,"DST":-3,"destinations":[8917,2954]},
{"City":"Hannover","DBTZ":"B","Name":"Hannover Airport","Country":"DE","IATA/FAA":"HAJ","Longitude":null,"Airport ID":"EDDV","Latitude":null,"Timezone":183,"DST":9,"destinations":[8979,2621,1684]},
{"City":"Baglung","DBTZ":"B","Name":"Baglung Airport","Country":"NP","IATA/FAA":"BGL","Longitude":null,"Airport ID":"VNBL","Latitude":null,"Timezone":77,"DST":-7,"destinations":[2766,9280]},
{"City":"Tarko-Sale","DBTZ":"A","Name":"Tarko-Sale Airport","Country":"RU","IATA/FAA":"TQL","Longitude":null,"Airport ID":"USDS","Latitude":null,"Timezone":938,"DST":-9,"destinations":[4735,9039,369]},
{"City":"Jimma","DBTZ":"D","Name":"Jimma Airport","Country":"ET","IATA/FAA":"JIM","Longitude":null,"Airport ID":"HAJM","Latitude":null,"Timezone":240,"DST":1,"destinations":[1250]},
{"City":"Wageningen","DBTZ":"B","Name":"Wageningen Airstrip","Country":"SR","IATA/FAA":"AGI","Longitude":null,"Airport ID":"SMWA","Latitude":null,"Timezone":449,"DST":-10,"destinations":[8406,814,6476]},
{"City":"Seattle","DBTZ":"B","Name":"Kenmore Air Harbor Seaplane Base","Country":"US","IATA/FAA":"LKE","Longitude":null,"Airport ID":"W55","Latitude":null,"Timezone":844,"DST":0,"destinations":[6697]},
{"City":null,"DBTZ":"D","Name":"Benalla Airport","Country":"AU","IATA/FAA":"BLN","Longitude":null,"Airport ID":"YBLA","Latitude":null,"Timezone":831,"DST":4,"destinations":[1955]},
{"City":"Orapa","DBTZ":"D","Name":"Orapa Airport","Country":"BW","IATA/FAA":"ORP","Longitude":null,"Airport ID":"FBOR","Latitude":null,"Timezone":900,"DST":5,"destinations":[9061,3486,3313]},
{"City":"Trieste","DBTZ":"D","Name":"Trieste–Friuli Venezia Giulia Airport","Country":"IT","IATA/FAA":"TRS","Longitude":null,"Airport ID":"LIPQ","Latitude":null,"Timezone":271,"DST":-7,"destinations":[805]},
{"City":"Mogilev","DBTZ":"A","Name":"Mogilev Airport","Country":"BY","IATA/FAA":"MVQ","Longitude":null,"Airport ID":"UMOO","Latitude":null,"Timezone":92,"DST":7,"destinations":[6330]},
{"City":"Nyeri","DBTZ":"D","Name":"Nyeri Airport","Country":"KE","IATA/FAA":"NYE","Longitude":null,"Airport ID":"HKNI","Latitude":null,"Timezone":951,"DST":12,"destinations":[7770,8464]},
{"City":"Minaçu","DBTZ":"A","Name":"Minaçu Airport","Country":"BR","IATA/FAA":"MQH","Longitude":null,"Airport ID":"SWIQ","Latitude":null,"Timezone":208,"DST":6,"destinations":[9217,4078]},
{"City":"Shell Mera","DBTZ":"B","Name":"Rio Amazonas Airport","Country":"EC","IATA/FAA":"PTZ","Longitude":null,"Airport ID":"SESM","Latitude":null,"Timezone":875,"DST":3,"destinations":[944]},
{"City":"Cañon City","DBTZ":"E","Name":"Fremont County Airport","Country":"US","IATA/FAA":"CNE","Longitude":null,"Airport ID":"1V6","Latitude":null,"Timezone":863,"DST":-1,"destinations":[4312,7694]},
{"City":"Golfito","DBTZ":"C","Name":"Golfito Airport","Country":"CR","IATA/FAA":"GLF","Longitude":null,"Airport ID":"MRGF","Latitude":null,"Timezone":399,"DST":-1,"destinations":[3347,2470,4738]},
{"City":"Donegal","DBTZ":"A","Name":"Donegal Airport","Country":"IE","IATA/FAA":"CFN","Longitude":null,"Airport ID":"EIDL","Latitude":null,"Timezone":16,"DST":-12,"destinations":[9796,8963,5182]},
{"City":"Grundarfjörður","DBTZ":"B","Name":"Grundarfjörður Airport","Country":"IS","IATA/FAA":"GUU","Longitude":null,"Airport ID":"BIGF","Latitude":null,"Timezone":572,"DST":-5,"destinations":[9080]},
{"City":"Kinshasa","DBTZ":"D","Name":"Ndjili International Airport","Country":"CD","IATA/FAA":"FIH","Longitude":null,"Airport ID":"FZAA","Latitude":null,"Timezone":694,"DST":-8,"destinations":[9257]},
{"City":"Northampton","DBTZ":"B","Name":"Sywell Aerodrome","Country":"GB","IATA/FAA":"ORM","Longitude":null,"Airport ID":"EGBK","Latitude":null,"Timezone":836,"DST":-1,"destinations":[3880,2946,7757]},
{"City":"Hinthada","DBTZ":"C","Name":"Hinthada Airport","Country":"MM","IATA/FAA":"HEB","Longitude":null,"Airport ID":"VYHT","Latitude":null,"Timezone":45,"DST":6,"destinations":[4810]},
{"City":"Michigan City","DBTZ":"C","Name":"Michigan City Municipal Airport","Country":"US","IATA/FAA":"MGC","Longitude":null,"Airport ID":"KMGC","Latitude":null,"Timezone":664,"DST":-9,"destinations":[8863,1908]},
{"City":null,"DBTZ":"E","Name":"Ararat Airport","Country":"AU","IATA/FAA":"ARY","Longitude":null,"Airport ID":"YARA","Latitude":null,"Timezone":160,"DST":5,"destinations":[9127,9786,7729]},
{"City":"Qasigiannguit","DBTZ":"A","Name":"Qasigiannguit Heliport","Country":"GL","IATA/FAA":"JCH","Longitude":null,"Airport ID":"BGCH","Latitude":null,"Timezone":766,"DST":-2,"destinations":[7411]},
{"City":"Alluitsup Paa","DBTZ":"C","Name":"Alluitsup Paa Heliport","Country":"GL","IATA/FAA":"LLU","Longitude":null,"Airport ID":"BGAP","Latitude":null,"Timezone":969,"DST":-11,"destinations":[9676]},
{"City":"Samara","DBTZ":"B","Name":"Kurumoch International Airport","Country":"RU","IATA/FAA":"KUF","Longitude":null,"Airport ID":"UWWW","Latitude":null,"Timezone":303,"DST":2,"destinations":[520]},
{"City":"Shenzhen","DBTZ":"E","Name":"Shenzhen Bao'an International Airport","Country":"CN","IATA/FAA":"SZX","Longitude":null,"Airport ID":"ZGSZ","Latitude":null,"Timezone":796,"DST":-8,"destinations":[4792]},
{"City":"Fort McMurray","DBTZ":"E","Name":"Fort McMurray Airport","Country":"CA","IATA/FAA":"YMM","Longitude":null,"Airport ID":"CYMM","Latitude":null,"Timezone":543,"DST":-3,"destinations":[5858,1881,64]},
{"City":null,"DBTZ":"C","Name":"Badu Island Airport","Country":"AU","IATA/FAA":"BDD","Longitude":null,"Airport ID":"YBAU","Latitude":null,"Timezone":496,"DST":9,"destinations":[6561]},
{"City":null,"DBTZ":"A","Name":"Nuku Hiva Airport","Country":"PF","IATA/FAA":"NHV","Longitude":null,"Airport ID":"NTMD","Latitude":null,"Timezone":882,"DST":-5,"destinations":[6064,902,4198]},
{"City":"Siasi Island","DBTZ":"E","Name":"Siasi Airport","Country":"PH","IATA/FAA":"SSV","Longitude":null,"Airport ID":null,"Latitude":null,"Timezone":503,"DST":4,"destinations":[4246,239]},
{"City":"Florianópolis","DBTZ":"C","Name":"Hercílio Luz International Airport","Country":"BR","IATA/FAA":"FLN","Longitude":null,"Airport ID":"SBFL","Latitude":null,"Timezone":310,"DST":-2,"destinations":[5697,9285,7210]},
{"City":"Roundup","DBTZ":"D","Name":"Roundup Airport","Country":"US","IATA/FAA":"RPX","Longitude":null,"Airport ID":"KRPX","Latitude":null,"Timezone":892,"DST":8,"destinations":[5475,8629]},
{"City":"Manokwari-Papua Island","DBTZ":"B","Name":"Rendani Airport","Country":"ID","IATA/FAA":"MKW","Longitude":null,"Airport ID":"WASR","Latitude":null,"Timezone":38,"DST":1,"destinations":[9037,5688,454]},
{"City":null,"DBTZ":"C","Name":"Boulia Airport","Country":"AU","IATA/FAA":"BQL","Longitude":null,"Airport ID":"YBOU","Latitude":null,"Timezone":817,"DST":3,"destinations":[7944,5163,800]},
{"City":"Spencer","DBTZ":"B","Name":"Spencer Municipal Airport","Country":"US","IATA/FAA":"SPW","Longitude":null,"Airport ID":"KSPW","Latitude":null,"Timezone":112,"DST":4,"destinations":[8112]},
{"City":"Donaueschingen","DBTZ":"E","Name":"Donaueschingen-Villingen Airport","Country":"DE","IATA/FAA":"ZQL","Longitude":null,"Airport ID":"EDTD","Latitude":null,"Timezone":522,"DST":-5,"destinations":[2214,5850]},
{"City":"Matei","DBTZ":"B","Name":"Matei Airport","Country":"FJ","IATA/FAA":"TVU","Longitude":null,"Airport ID":"NFNM","Latitude":null,"Timezone":607,"DST":-12,"destinations":[5522]},
{"City":"Dekai - Yahukimo","DBTZ":"E","Name":"Nop Goliat Airport","Country":"ID","IATA/FAA":"DEX","Longitude":null,"Airport ID":"WAVD","Latitude":null,"Timezone":578,"DST":12,"destinations":[8062,2834]},
{"City":"El Dorado","DBTZ":"D","Name":"Captain Jack Thomas El Dorado Airport","Country":"US","IATA/FAA":"EDK","Longitude":null,"Airport ID":"KEQA","Latitude":null,"Timezone":42,"DST":-7,"destinations":[6302,6549]},
{"City":"Thumrait","DBTZ":"D","Name":"Thumrait Air Base","Country":"OM","IATA/FAA":"TTH","Longitude":null,"Airport ID":"OOTH","Latitude":null,"Timezone":20,"DST":6,"destinations":[8662]},
{"City":"Magdeburg","DBTZ":"C","Name":"Magdeburg \"City\" Airport","Country":"DE","IATA/FAA":"ZMG","Longitude":null,"Airport ID":"EDBM","Latitude":null,"Timezone":958,"DST":-6,"destinations":[1680,1358,6844]},
{"City":"Kribi","DBTZ":"C","Name":"Kribi Airport","Country":"CM","IATA/FAA":"KBI","Longitude":null,"Airport ID":"FKKB","Latitude":null,"Timezone":169,"DST":2,"destinations":[1088,3427]},
{"City":"Rennell Island","DBTZ":"D","Name":"Rennell/Tingoa Airport","Country":"SB","IATA/FAA":"RNL","Longitude":null,"Airport ID":"AGGR","Latitude":null,"Timezone":726,"DST":3,"destinations":[2715]},
{"City":"Neubrandenburg","DBTZ":"A","Name":"Neubrandenburg Airport","Country":"DE","IATA/FAA":"FNB","Longitude":null,"Airport ID":"EDBN","Latitude":null,"Timezone":571,"DST":-8,"destinations":[4944]},
{"City":"Mount Hotham","DBTZ":"A","Name":"Mount Hotham Airport","Country":"AU","IATA/FAA":"MHU","Longitude":null,"Airport ID":"YHOT","Latitude":null,"Timezone":809,"DST":-2,"destinations":[7180]},
{"City":"Malindi","DBTZ":"C","Name":"Malindi Airport","Country":"KE","IATA/FAA":"MYD","Longitude":null,"Airport ID":"HKML","Latitude":null,"Timezone":494,"DST":-10,"destinations":[144]},
{"City":"Delta Junction Ft Greely","DBTZ":"B","Name":"Allen Army Airfield","Country":"US","IATA/FAA":"BIG","Longitude":null,"Airport ID":"PABI","Latitude":null,"Timezone":876,"DST":11,"destinations":[4397,9118,1222]},
{"City":"Tucuruí","DBTZ":"E","Name":"Tucuruí Airport","Country":"BR","IATA/FAA":"TUR","Longitude":null,"Airport ID":"SBTU","Latitude":null,"Timezone":49,"DST":-11,"destinations":[3718,1353]},
{"City":"Whitehorse","DBTZ":"E","Name":"Whitehorse / Erik Nielsen International Airport","Country":"CA","IATA/FAA":"YXY","Longitude":null,"Airport ID":"CYXY","Latitude":null,"Timezone":431,"DST":-11,"destinations":[4596]},
{"City":"Nea Anchialos","DBTZ":"D","Name":"Nea Anchialos Airport","Country":"GR","IATA/FAA":"VOL","Longitude":null,"Airport ID":"LGBL","Latitude":null,"Timezone":96,"DST":-6,"destinations":[9413,678]},
{"City":"New Ulm","DBTZ":"E","Name":"New Ulm Municipal Airport","Country":"US","IATA/FAA":"ULM","Longitude":null,"Airport ID":"KULM","Latitude":null,"Timezone":225,"DST":-2,"destinations":[2102,9443]},
{"City":null,"DBTZ":"C","Name":"Andapa Airport","Country":"MG","IATA/FAA":"ZWA","Longitude":null,"Airport ID":"FMND","Latitude":null,"Timezone":147,"DST":7,"destinations":[9683]},
{"City":"Debre Tabor","DBTZ":"B","Name":"Debre Tabor Airport","Country":"ET","IATA/FAA":"DBT","Longitude":null,"Airport ID":"HADT","Latitude":null,"Timezone":227,"DST":11,"destinations":[6489]},
{"City":"Büsum","DBTZ":"D","Name":"Heide-Büsum Airport","Country":"DE","IATA/FAA":"HEI","Longitude":null,"Airport ID":"EDXB","Latitude":null,"Timezone":921,"DST":-10,"destinations":[9799,4148,1455]},
{"City":"Skagway","DBTZ":"C","Name":"Skagway Airport","Country":"US","IATA/FAA":"SGY","Longitude":null,"Airport ID":"PAGY","Latitude":null,"Timezone":689,"DST":4,"destinations":[4675,8137]},
{"City":"Tchibanga","DBTZ":"B","Name":"Tchibanga Airport","Country":"GA","IATA/FAA":"TCH","Longitude":null,"Airport ID":"FOOT","Latitude":null,"Timezone":260,"DST":-11,"destinations":[4995,8963,8183]},
{"City":"El Reno","DBTZ":"D","Name":"El Reno Regional Airport","Country":"US","IATA/FAA":"RQO","Longitude":null,"Airport ID":"KRQO","Latitude":null,"Timezone":946,"DST":3,"destinations":[948]},
{"City":"Oshawa","DBTZ":"D","Name":"Toronto/Oshawa Executive Airport","Country":"CA","IATA/FAA":"YOO","Longitude":null,"Airport ID":"CYOO","Latitude":null,"Timezone":175,"DST":-9,"destinations":[748,9682,1555]},
{"City":"Aripuanã","DBTZ":"E","Name":"Aripuanã Airport","Country":"BR","IATA/FAA":"AIR","Longitude":null,"Airport ID":"SSOU","Latitude":null,"Timezone":855,"DST":3,"destinations":[2081]},
{"City":null,"DBTZ":"A","Name":"Mount House Airport","Country":"AU","IATA/FAA":"MHO","Longitude":null,"Airport ID":"YMHO","Latitude":null,"Timezone":312,"DST":-10,"destinations":[8149,8013]},
{"City":null,"DBTZ":"E","Name":"Quilpie Airport","Country":"AU","IATA/FAA":"ULP","Longitude":null,"Airport ID":"YQLP","Latitude":null,"Timezone":835,"DST":2,"destinations":[8758,9871]},
{"City":"New Delhi","DBTZ":"E","Name":"Indira Gandhi International Airport","Country":"IN","IATA/FAA":"DEL","Longitude":null,"Airport ID":"VIDP","Latitude":null,"Timezone":223,"DST":8,"destinations":[6609,8220,2821]},
{"City":"Uchiza","DBTZ":"E","Name":"Uchiza Airport","Country":"PE","IATA/FAA":"UCZ","Longitude":null,"Airport ID":"SPIZ","Latitude":null,"Timezone":639,"DST":12,"destinations":[7527,3496]},
{"City":"Kananga","DBTZ":"A","Name":"Kananga Airport","Country":"CD","IATA/FAA":"KGA","Longitude":null,"Airport ID":"FZUA","Latitude":null,"Timezone":387,"DST":-9,"destinations":[8981,3234]},
{"City":"Grand Rapids","DBTZ":"C","Name":"Grand Rapids Itasca Co-Gordon Newstrom field","Country":"US","IATA/FAA":"GPZ","Longitude":null,"Airport ID":"KGPZ","Latitude":null,"Timezone":661,"DST":-4,"destinations":[2076]},
{"City":null,"DBTZ":"D","Name":"Dunbar Airport","Country":"AU","IATA/FAA":"DNB","Longitude":null,"Airport ID":"YDBR","Latitude":null,"Timezone":798,"DST":10,"destinations":[5772,8517,3801]},
{"City":"Dawei","DBTZ":"B","Name":"Dawei Airport","Country":"MM","IATA/FAA":"TVY","Longitude":null,"Airport ID":"VYDW","Latitude":null,"Timezone":489,"DST":-1,"destinations":[8245]},
{"City":"Dallas-Fort Worth","DBTZ":"D","Name":"Dallas Fort Worth International Airport","Country":"US","IATA/FAA":"DFW","Longitude":null,"Airport ID":"KDFW","Latitude":null,"Timezone":599,"DST":0,"destinations":[5850,3867,6053]},
{"City":"Cayo Coco","DBTZ":"E","Name":"Jardines Del Rey Airport","Country":"CU","IATA/FAA":"CCC","Longitude":null,"Airport ID":"MUCC","Latitude":null,"Timezone":257,"DST":9,"destinations":[3269,7243]},
{"City":"Galveston","DBTZ":"B","Name":"Scholes International At Galveston Airport","Country":"US","IATA/FAA":"GLS","Longitude":null,"Airport ID":"KGLS","Latitude":null,"Timezone":303,"DST":8,"destinations":[853,4476]},
{"City":"La Môle","DBTZ":"D","Name":"La Môle Airport","Country":"FR","IATA/FAA":"LTT","Longitude":null,"Airport ID":"LFTZ","Latitude":null,"Timezone":372,"DST":3,"destinations":[8430,116,5944]},
{"City":"Sesheke","DBTZ":"C","Name":"Sesheke Airport","Country":"ZM","IATA/FAA":"SJQ","Longitude":null,"Airport ID":"FLSS","Latitude":null,"Timezone":888,"DST":9,"destinations":[9352,4078,2993]},
{"City":"Atlanta","DBTZ":"C","Name":"Hartsfield Jackson Atlanta International Airport","Country":"US","IATA/FAA":"ATL","Longitude":null,"Airport ID":"KATL","Latitude":null,"Timezone":259,"DST":-7,"destinations":[8074]},
{"City":"Lissadell Station","DBTZ":"D","Name":"Lissadell Airport","Country":"AU","IATA/FAA":"LLL","Longitude":null,"Airport ID":null,"Latitude":null,"Timezone":749,"DST":12,"destinations":[9560,7817]},
{"City":"Dirico","DBTZ":"A","Name":"Dirico Airport","Country":"AO","IATA/FAA":"DRC","Longitude":null,"Airport ID":null,"Latitude":null,"Timezone":510,"DST":-12,"destinations":[8481,8856]},
{"City":null,"DBTZ":"C","Name":"Dakhla Airport","Country":"EG","IATA/FAA":"DAK","Longitude":null,"Airport ID":"HEDK","Latitude":null,"Timezone":436,"DST":-6,"destinations":[8764]},
{"City":"Dakar","DBTZ":"B","Name":"Léopold Sédar Senghor International Airport","Country":"SN","IATA/FAA":"DKR","Longitude":null,"Airport ID":"GOOY","Latitude":null,"Timezone":198,"DST":2,"destinations":[7142]},
{"City":"Dos Lagunas","DBTZ":"C","Name":"Dos Lagunas Airport","Country":"GT","IATA/FAA":"DON","Longitude":null,"Airport ID":"MGDL","Latitude":null,"Timezone":229,"DST":3,"destinations":[5898]},
{"City":"Chambéry/Aix-les-Bains","DBTZ":"D","Name":"Chambéry-Savoie Airport","Country":"FR","IATA/FAA":"CMF","Longitude":null,"Airport ID":"LFLB","Latitude":null,"Timezone":724,"DST":3,"destinations":[225]},
{"City":"Menorca Island","DBTZ":"A","Name":"Menorca Airport","Country":"ES","IATA/FAA":"MAH","Longitude":null,"Airport ID":"LEMH","Latitude":null,"Timezone":849,"DST":11,"destinations":[8710]},
{"City":"Knoxville","DBTZ":"E","Name":"McGhee Tyson Airport","Country":"US","IATA/FAA":"TYS","Longitude":null,"Airport ID":"KTYS","Latitude":null,"Timezone":791,"DST":-5,"destinations":[7625,3231,5614]},
{"City":"Kokkola / Kruunupyy","DBTZ":"B","Name":"Kokkola-Pietarsaari Airport","Country":"FI","IATA/FAA":"KOK","Longitude":null,"Airport ID":"EFKK","Latitude":null,"Timezone":227,"DST":-6,"destinations":[4257,4043,6020]},
{"City":"Wasilla","DBTZ":"E","Name":"Wasilla Airport","Country":"US","IATA/FAA":"WWA","Longitude":null,"Airport ID":"PAWS","Latitude":null,"Timezone":995,"DST":-3,"destinations":[1783,3191,4164]},
{"City":"Mogi Mirim","DBTZ":"D","Name":"Mogi Mirim Airport","Country":"BR","IATA/FAA":"0","Longitude":null,"Airport ID":"SDMJ","Latitude":null,"Timezone":706,"DST":-5,"destinations":[3035,7142]},
{"City":"Rivera","DBTZ":"E","Name":"Presidente General Don Oscar D. Gestido International Airport","Country":"UY","IATA/FAA":"RVY","Longitude":null,"Airport ID":"SURV","Latitude":null,"Timezone":274,"DST":1,"destinations":[3401,3549]},
{"City":"Borger","DBTZ":"A","Name":"Hutchinson County Airport","Country":"US","IATA/FAA":"BGD","Longitude":null,"Airport ID":"KBGD","Latitude":null,"Timezone":568,"DST":-2,"destinations":[931,3499,4729]},
{"City":"Kingstown","DBTZ":"A","Name":"E. T. Joshua Airport","Country":"VC","IATA/FAA":"SVD","Longitude":null,"Airport ID":"TVSV","Latitude":null,"Timezone":558,"DST":0,"destinations":[7631,8475,5321]},
{"City":"Santa Cruz del Quiche","DBTZ":"C","Name":"Santa Cruz del Quiche Airport","Country":"GT","IATA/FAA":"AQB","Longitude":null,"Airport ID":"MGQC","Latitude":null,"Timezone":999,"DST":-6,"destinations":[7063,3283,2945]},
{"City":"Damascus","DBTZ":"C","Name":"Damascus International Airport","Country":"SY","IATA/FAA":"DAM","Longitude":null,"Airport ID":"OSDI","Latitude":null,"Timezone":959,"DST":-11,"destinations":[2067,299,8370]},
{"City":"Sucua","DBTZ":"B","Name":"Sucua Airport","Country":"EC","IATA/FAA":"SUQ","Longitude":null,"Airport ID":"SESC","Latitude":null,"Timezone":112,"DST":-2,"destinations":[1563,2734,6506]},
{"City":"Rodes Island","DBTZ":"D","Name":"Diagoras Airport","Country":"GR","IATA/FAA":"RHO","Longitude":null,"Airport ID":"LGRP","Latitude":null,"Timezone":247,"DST":-12,"destinations":[3509]},
{"City":"Anshun","DBTZ":"E","Name":"Anshun Huangguoshu Airport","Country":"CN","IATA/FAA":"AVA","Longitude":null,"Airport ID":"ZUAS","Latitude":null,"Timezone":907,"DST":-7,"destinations":[8839,1549]},
{"City":"Lincoln","DBTZ":"D","Name":"Lincoln Airport","Country":"US","IATA/FAA":"LNK","Longitude":null,"Airport ID":"KLNK","Latitude":null,"Timezone":332,"DST":-6,"destinations":[1060,7591]},
{"City":null,"DBTZ":"A","Name":"Noshahr Airport","Country":"IR","IATA/FAA":"NSH","Longitude":null,"Airport ID":"OINN","Latitude":null,"Timezone":97,"DST":-3,"destinations":[7852,1467]},
{"City":"Arraias","DBTZ":"B","Name":"Arraias Airport","Country":"BR","IATA/FAA":"AAI","Longitude":null,"Airport ID":"SWRA","Latitude":null,"Timezone":733,"DST":3,"destinations":[6808]},
{"City":"Istanbul","DBTZ":"A","Name":"Istanbul Airport","Country":"TR","IATA/FAA":"IST","Longitude":null,"Airport ID":"LTFM","Latitude":null,"Timezone":149,"DST":-6,"destinations":[4739,3975]},
{"City":"Parana","DBTZ":"C","Name":"General Urquiza Airport","Country":"AR","IATA/FAA":"PRA","Longitude":null,"Airport ID":"SAAP","Latitude":null,"Timezone":931,"DST":4,"destinations":[9648,6916]},
{"City":"Krasnoyarsk","DBTZ":"D","Name":"Yemelyanovo Airport","Country":"RU","IATA/FAA":"KJA","Longitude":null,"Airport ID":"UNKL","Latitude":null,"Timezone":674,"DST":7,"destinations":[8684,9165]},
{"City":"Kurgan","DBTZ":"A","Name":"Kurgan Airport","Country":"RU","IATA/FAA":"KRO","Longitude":null,"Airport ID":"USUU","Latitude":null,"Timezone":223,"DST":10,"destinations":[7810]},
{"City":"Jebel Ali","DBTZ":"B","Name":"Al Maktoum International Airport","Country":"AE","IATA/FAA":"DWC","Longitude":null,"Airport ID":"OMDW","Latitude":null,"Timezone":114,"DST":-7,"destinations":[1298,7002]},
{"City":"Saginaw","DBTZ":"B","Name":"MBS International Airport","Country":"US","IATA/FAA":"MBS","Longitude":null,"Airport ID":"KMBS","Latitude":null,"Timezone":915,"DST":12,"destinations":[8967,7894]},
{"City":"Boquira","DBTZ":"A","Name":"Boquira Airport","Country":"BR","IATA/FAA":"0","Longitude":null,"Airport ID":"SNBO","Latitude":null,"Timezone":332,"DST":-11,"destinations":[8211]},
{"City":"Mianwali","DBTZ":"E","Name":"Mianwali Air Base","Country":"PK","IATA/FAA":"MWD","Longitude":null,"Airport ID":"OPMI","Latitude":null,"Timezone":47,"DST":5,"destinations":[6280]},
{"City":"The Pas","DBTZ":"A","Name":"The Pas Airport","Country":"CA","IATA/FAA":"YQD","Longitude":null,"Airport ID":"CYQD","Latitude":null,"Timezone":152,"DST":-10,"destinations":[1271,6552]},
{"City":"Khujirt","DBTZ":"C","Name":"Khujirt Airport","Country":"MN","IATA/FAA":"HJT","Longitude":null,"Airport ID":"ZMHU","Latitude":null,"Timezone":919,"DST":6,"destinations":[4184,3878,8367]},
{"City":"Murmansk","DBTZ":"D","Name":"Murmansk Airport","Country":"RU","IATA/FAA":"MMK","Longitude":null,"Airport ID":"ULMM","Latitude":null,"Timezone":927,"DST":-5,"destinations":[732,335,5783]},
{"City":null,"DBTZ":"C","Name":"Warrawagine Airport","Country":"AU","IATA/FAA":"WRW","Longitude":null,"Airport ID":"YWWG","Latitude":null,"Timezone":381,"DST":-12,"destinations":[522,6900,7242]},
{"City":"Belleville","DBTZ":"D","Name":"Scott AFB/Midamerica Airport","Country":"US","IATA/FAA":"BLV","Longitude":null,"Airport ID":"KBLV","Latitude":null,"Timezone":740,"DST":7,"destinations":[3048,373]},
{"City":"El Arish","DBTZ":"D","Name":"El Arish International Airport","Country":"EG","IATA/FAA":"AAC","Longitude":null,"Airport ID":"HEAR","Latitude":null,"Timezone":94,"DST":-1,"destinations":[2395]},
{"City":"Kelila-Papua Island","DBTZ":"A","Name":"Kelila Airport","Country":"ID","IATA/FAA":"LLN","Longitude":null,"Airport ID":null,"Latitude":null,"Timezone":497,"DST":-6,"destinations":[4750,8329,5714]},
{"City":"Phnom Penh","DBTZ":"A","Name":"Phnom Penh International Airport","Country":"KH","IATA/FAA":"PNH","Longitude":null,"Airport ID":"VDPP","Latitude":null,"Timezone":230,"DST":-10,"destinations":[8038,4001,7572]},
{"City":null,"DBTZ":"C","Name":"Balcanoona Airport","Country":"AU","IATA/FAA":"LCN","Longitude":null,"Airport ID":"YBLC","Latitude":null,"Timezone":966,"DST":-7,"destinations":[8275,6929]},
{"City":"Ewo","DBTZ":"D","Name":"Ewo Airport","Country":"CG","IATA/FAA":"EWO","Longitude":null,"Airport ID":"FCOE","Latitude":null,"Timezone":138,"DST":8,"destinations":[813]},
{"City":"Am Timan","DBTZ":"E","Name":"Am Timan Airport","Country":"TD","IATA/FAA":"AMC","Longitude":null,"Airport ID":"FTTN","Latitude":null,"Timezone":433,"DST":12,"destinations":[4930]},
{"City":"Impfondo","DBTZ":"E","Name":"Impfondo Airport","Country":"CG","IATA/FAA":"ION","Longitude":null,"Airport ID":"FCOI","Latitude":null,"Timezone":293,"DST":7,"destinations":[9903]},
{"City":"Houston","DBTZ":"A","Name":"David Wayne Hooks Memorial Airport","Country":"US","IATA/FAA":"DWH","Longitude":null,"Airport ID":"KDWH","Latitude":null,"Timezone":130,"DST":-1,"destinations":[5399]},
{"City":"Greybull","DBTZ":"B","Name":"South Big Horn County Airport","Country":"US","IATA/FAA":"GEY","Longitude":null,"Airport ID":"KGEY","Latitude":null,"Timezone":917,"DST":4,"destinations":[1304]},
{"City":"Anuradhapura","DBTZ":"A","Name":"Anuradhapura Air Force Base","Country":"LK","IATA/FAA":"ACJ","Longitude":null,"Airport ID":"VCCA","Latitude":null,"Timezone":639,"DST":2,"destinations":[7959,8672]},
{"City":"Roma","DBTZ":"B","Name":"Roma Airport","Country":"AU","IATA/FAA":"RMA","Longitude":null,"Airport ID":"YROM","Latitude":null,"Timezone":875,"DST":12,"destinations":[6867]},
{"City":null,"DBTZ":"E","Name":"Katanning Airport","Country":"AU","IATA/FAA":"KNI","Longitude":null,"Airport ID":"YKNG","Latitude":null,"Timezone":300,"DST":-12,"destinations":[8481]},
{"City":"Stony Rapids","DBTZ":"A","Name":"Stony Rapids Airport","Country":"CA","IATA/FAA":"YSF","Longitude":null,"Airport ID":"CYSF","Latitude":null,"Timezone":438,"DST":-8,"destinations":[6626,961,2037]},
{"City":"Williston","DBTZ":"D","Name":"Sloulin Field International Airport","Country":"US","IATA/FAA":"ISN","Longitude":null,"Airport ID":"KISN","Latitude":null,"Timezone":783,"DST":10,"destinations":[3170,2166,4463]},
{"City":"Djibouti City","DBTZ":"B","Name":"Djibouti-Ambouli Airport","Country":"DJ","IATA/FAA":"JIB","Longitude":null,"Airport ID":"HDAM","Latitude":null,"Timezone":208,"DST":4,"destinations":[8414,766]},
{"City":"Bahía Cupica","DBTZ":"D","Name":"Bahia Cupica Airport","Country":"CO","IATA/FAA":"BHF","Longitude":null,"Airport ID":null,"Latitude":null,"Timezone":542,"DST":10,"destinations":[410,8323,2360]},
{"City":"Paphos","DBTZ":"B","Name":"Paphos International Airport","Country":"CY","IATA/FAA":"PFO","Longitude":null,"Airport ID":"LCPH","Latitude":null,"Timezone":76,"DST":10,"destinations":[7332,5584,1243]},
{"City":"Santo Domingo","DBTZ":"C","Name":"Las Américas International Airport","Country":"DO","IATA/FAA":"SDQ","Longitude":null,"Airport ID":"MDSD","Latitude":null,"Timezone":148,"DST":-2,"destinations":[6778,7558,8502]},
{"City":"Inta","DBTZ":"A","Name":"Inta Airport","Country":"RU","IATA/FAA":"INA","Longitude":null,"Airport ID":"UUYI","Latitude":null,"Timezone":660,"DST":0,"destinations":[4197,496]},
{"City":null,"DBTZ":"D","Name":"Highbury Airport","Country":"AU","IATA/FAA":"HIG","Longitude":null,"Airport ID":"YHHY","Latitude":null,"Timezone":550,"DST":-9,"destinations":[5858,2295,6904]},
{"City":"Dallas-Fort Worth","DBTZ":"E","Name":"Dallas Fort Worth International Airport","Country":"US","IATA/FAA":"DFW","Longitude":null,"Airport ID":"KDFW","Latitude":null,"Timezone":297,"DST":-7,"destinations":[7055,8157,1015]},
{"City":"Ironstone","DBTZ":"B","Name":"Penneshaw Airport","Country":"AU","IATA/FAA":"PEA","Longitude":null,"Airport ID":"YPSH","Latitude":null,"Timezone":580,"DST":-12,"destinations":[5997,6973,4658]},
{"City":"Parma","DBTZ":"D","Name":"Parma Airport","Country":"IT","IATA/FAA":"PMF","Longitude":null,"Airport ID":"LIMP","Latitude":null,"Timezone":188,"DST":-12,"destinations":[6964,1069]},
{"City":"Icy Bay","DBTZ":"A","Name":"Icy Bay Airport","Country":"US","IATA/FAA":"ICY","Longitude":null,"Airport ID":"19AK","Latitude":null,"Timezone":201,"DST":11,"destinations":[9960]},
{"City":"Farmington","DBTZ":"A","Name":"Farmington Regional Airport","Country":"US","IATA/FAA":"FAM","Longitude":null,"Airport ID":"KFAM","Latitude":null,"Timezone":823,"DST":6,"destinations":[9861,5664,9456]},
{"City":null,"DBTZ":"A","Name":"Mount Sanford Station Airport","Country":"AU","IATA/FAA":"MTD","Longitude":null,"Airport ID":"YMSF","Latitude":null,"Timezone":829,"DST":-11,"destinations":[2101,5084]},
{"City":"Kitkatla","DBTZ":"D","Name":"Kitkatla Seaplane Base","Country":"CA","IATA/FAA":"YKK","Longitude":null,"Airport ID":"CAP7","Latitude":null,"Timezone":937,"DST":5,"destinations":[9107,5600,3892]},
{"City":"Tarko-Sale","DBTZ":"E","Name":"Tarko-Sale Airport","Country":"RU","IATA/FAA":"TQL","Longitude":null,"Airport ID":"USDS","Latitude":null,"Timezone":93,"DST":3,"destinations":[4751]},
{"City":"Port Hedland","DBTZ":"A","Name":"Port Hedland International Airport","Country":"AU","IATA/FAA":"PHE","Longitude":null,"Airport ID":"YPPD","Latitude":null,"Timezone":629,"DST":4,"destinations":[6432,8998,9627]},
{"City":"Lucknow","DBTZ":"E","Name":"Chaudhary Charan Singh International Airport","Country":"IN","IATA/FAA":"LKO","Longitude":null,"Airport ID":"VILK","Latitude":null,"Timezone":249,"DST":5,"destinations":[7127]},
{"City":"Tangier","DBTZ":"A","Name":"Ibn Batouta Airport","Country":"MA","IATA/FAA":"TNG","Longitude":null,"Airport ID":"GMTT","Latitude":null,"Timezone":710,"DST":6,"destinations":[2618]},
{"City":"Makung City","DBTZ":"D","Name":"Makung Airport","Country":"TW","IATA/FAA":"MZG","Longitude":null,"Airport ID":"RCQC","Latitude":null,"Timezone":484,"DST":10,"destinations":[8679,2729]},
{"City":"Baleela Base Camp","DBTZ":"C","Name":"Baleela Airport","Country":"SD","IATA/FAA":"BJE","Longitude":null,"Airport ID":null,"Latitude":null,"Timezone":31,"DST":8,"destinations":[2788]},
{"City":"Bogalusa","DBTZ":"B","Name":"George R Carr Memorial Air Field","Country":"US","IATA/FAA":"BXA","Longitude":null,"Airport ID":"KBXA","Latitude":null,"Timezone":434,"DST":-3,"destinations":[7467,1740,1318]},
{"City":"Cruz Alta","DBTZ":"D","Name":"Carlos Ruhl Airport","Country":"BR","IATA/FAA":"CZB","Longitude":null,"Airport ID":"SSAK","Latitude":null,"Timezone":0,"DST":-10,"destinations":[509]},
{"City":"Fallon","DBTZ":"B","Name":"Fallon Municipal Airport","Country":"US","IATA/FAA":"FLX","Longitude":null,"Airport ID":"KFLX","Latitude":null,"Timezone":247,"DST":-7,"destinations":[7539,239]},
{"City":null,"DBTZ":"D","Name":"Moundou Airport","Country":"TD","IATA/FAA":"MQQ","Longitude":null,"Airport ID":"FTTD","Latitude":null,"Timezone":589,"DST":9,"destinations":[3313,8681]},
{"City":null,"DBTZ":"B","Name":"Nullabor Motel Airport","Country":"AU","IATA/FAA":"NUR","Longitude":null,"Airport ID":"YNUB","Latitude":null,"Timezone":610,"DST":-9,"destinations":[3425]},
{"City":null,"DBTZ":"B","Name":"Lizard Island Airport","Country":"AU","IATA/FAA":"LZR","Longitude":null,"Airport ID":"YLZI","Latitude":null,"Timezone":383,"DST":-5,"destinations":[1696]},
{"City":"Montreal","DBTZ":"C","Name":"Cartierville Airport","Country":"CA","IATA/FAA":"YCV","Longitude":null,"Airport ID":"CYCV","Latitude":null,"Timezone":851,"DST":-9,"destinations":[8985,6996,3683]},
{"City":"Amman","DBTZ":"A","Name":"Amman-Marka International Airport","Country":"JO","IATA/FAA":"ADJ","Longitude":null,"Airport ID":"OJAM","Latitude":null,"Timezone":196,"DST":5,"destinations":[6595,9307,2422]},
{"City":"Awaradam","DBTZ":"A","Name":"Cayana Airstrip","Country":"SR","IATA/FAA":"AAJ","Longitude":null,"Airport ID":"SMCA","Latitude":null,"Timezone":2,"DST":-5,"destinations":[8568,3160]},
{"City":"Kangaatsiaq","DBTZ":"D","Name":"Kangaatsiaq Heliport","Country":"GL","IATA/FAA":"QPW","Longitude":null,"Airport ID":"BGKA","Latitude":null,"Timezone":36,"DST":-12,"destinations":[6443,2009]},
{"City":null,"DBTZ":"C","Name":"Songkhla Airport","Country":"TH","IATA/FAA":"SGZ","Longitude":null,"Airport ID":"VTSH","Latitude":null,"Timezone":403,"DST":8,"destinations":[4854,3004,5062]},
{"City":"Broken Hill","DBTZ":"C","Name":"Broken Hill Airport","Country":"AU","IATA/FAA":"BHQ","Longitude":null,"Airport ID":"YBHI","Latitude":null,"Timezone":263,"DST":-4,"destinations":[4488]},
{"City":"Kuito","DBTZ":"D","Name":"Kuito Airport","Country":"AO","IATA/FAA":"SVP","Longitude":null,"Airport ID":"FNKU","Latitude":null,"Timezone":236,"DST":1,"destinations":[2953,128,8774]},
{"City":"Vancouver","DBTZ":"A","Name":"Vancouver International Airport","Country":"CA","IATA/FAA":"YVR","Longitude":null,"Airport ID":"CYVR","Latitude":null,"Timezone":84,"DST":-2,"destinations":[8738]},
{"City":"Resende","DBTZ":"B","Name":"Resende Airport","Country":"BR","IATA/FAA":"REZ","Longitude":null,"Airport ID":"SDRS","Latitude":null,"Timezone":462,"DST":5,"destinations":[278,7717]},
{"City":"Garanhuns","DBTZ":"B","Name":"Garanhuns Airport","Country":"BR","IATA/FAA":"QGP","Longitude":null,"Airport ID":"SNGN","Latitude":null,"Timezone":319,"DST":-1,"destinations":[4770]},
{"City":"Merlo","DBTZ":"C","Name":"Valle Del Conlara International Airport","Country":"AR","IATA/FAA":"RLO","Longitude":null,"Airport ID":"SAOS","Latitude":null,"Timezone":134,"DST":-6,"destinations":[8541]},
{"City":"Jackson","DBTZ":"E","Name":"Jackson Hole Airport","Country":"US","IATA/FAA":"JAC","Longitude":null,"Airport ID":"KJAC","Latitude":null,"Timezone":138,"DST":0,"destinations":[24]},
{"City":"Durham","DBTZ":"A","Name":"Durham Tees Valley Airport","Country":"GB","IATA/FAA":"MME","Longitude":null,"Airport ID":"EGNV","Latitude":null,"Timezone":8,"DST":5,"destinations":[582,5970,8131]},
{"City":"Geçitkale","DBTZ":"A","Name":"Lefkoniko Airport","Country":"CY","IATA/FAA":"GEC","Longitude":null,"Airport ID":"LCGK","Latitude":null,"Timezone":733,"DST":-1,"destinations":[732,8949]},
{"City":"Pierre","DBTZ":"A","Name":"Pierre Regional Airport","Country":"US","IATA/FAA":"PIR","Longitude":null,"Airport ID":"KPIR","Latitude":null,"Timezone":155,"DST":1,"destinations":[5793]},
{"City":"Tiko","DBTZ":"B","Name":"Tiko Airport","Country":"CM","IATA/FAA":"TKC","Longitude":null,"Airport ID":"FKKC","Latitude":null,"Timezone":709,"DST":0,"destinations":[1486,5129,8695]},
{"City":"Phu Quoc Island","DBTZ":"B","Name":"Phu Quoc International Airport","Country":"VN","IATA/FAA":"PQC","Longitude":null,"Airport ID":"VVPQ","Latitude":null,"Timezone":294,"DST":-1,"destinations":[8124]},
{"City":null,"DBTZ":"B","Name":"Cooinda Airport","Country":"AU","IATA/FAA":"CDA","Longitude":null,"Airport ID":"YCOO","Latitude":null,"Timezone":947,"DST":3,"destinations":[7683]},
{"City":"Foya","DBTZ":"B","Name":"Foya Airport","Country":"LR","IATA/FAA":"FOY","Longitude":null,"Airport ID":null,"Latitude":null,"Timezone":982,"DST":4,"destinations":[9511]},
{"City":"Grande Anse","DBTZ":"E","Name":"La Désirade Airport","Country":"GP","IATA/FAA":"DSD","Longitude":null,"Airport ID":"TFFA","Latitude":null,"Timezone":102,"DST":0,"destinations":[2053]},
{"City":"Mareb","DBTZ":"B","Name":"Mareb Airport","Country":"YE","IATA/FAA":"MYN","Longitude":null,"Airport ID":"OYMB","Latitude":null,"Timezone":784,"DST":4,"destinations":[3841]},
{"City":"Brasilito","DBTZ":"A","Name":"Flamingo Airport","Country":"CR","IATA/FAA":"FMG","Longitude":null,"Airport ID":"MRFL","Latitude":null,"Timezone":188,"DST":5,"destinations":[7876]},
{"City":"Kassel","DBTZ":"B","Name":"Kassel-Calden Airport","Country":"DE","IATA/FAA":"KSF","Longitude":null,"Airport ID":"EDVK","Latitude":null,"Timezone":901,"DST":8,"destinations":[9647,1287]},
{"City":"Babelthuap Island","DBTZ":"B","Name":"Babelthuap Airport","Country":"PW","IATA/FAA":"ROR","Longitude":null,"Airport ID":"PTRO","Latitude":null,"Timezone":75,"DST":12,"destinations":[391]},
{"City":"Fakfak-Papua Island","DBTZ":"C","Name":"Fakfak Airport","Country":"ID","IATA/FAA":"FKQ","Longitude":null,"Airport ID":"WASF","Latitude":null,"Timezone":959,"DST":11,"destinations":[9956,2156]},
{"City":"Lac La Biche","DBTZ":"D","Name":"Lac La Biche Airport","Country":"CA","IATA/FAA":"YLB","Longitude":null,"Airport ID":"CYLB","Latitude":null,"Timezone":690,"DST":11,"destinations":[2868,6872]},
{"City":"Johnston Atoll","DBTZ":"A","Name":"Johnston Atoll Airport","Country":"UM","IATA/FAA":"JON","Longitude":null,"Airport ID":"PJON","Latitude":null,"Timezone":444,"DST":-6,"destinations":[5646,4393]},
{"City":"Donaueschingen","DBTZ":"C","Name":"Donaueschingen-Villingen Airport","Country":"DE","IATA/FAA":"ZQL","Longitude":null,"Airport ID":"EDTD","Latitude":null,"Timezone":427,"DST":-3,"destinations":[1216,3176,1107]},
{"City":"Spratley Islands","DBTZ":"D","Name":"Layang-Layang Airport","Country":"MY","IATA/FAA":"LAC","Longitude":null,"Airport ID":null,"Latitude":null,"Timezone":588,"DST":5,"destinations":[6340]},
{"City":"Touho","DBTZ":"C","Name":"Touho Airport","Country":"NC","IATA/FAA":"TOU","Longitude":null,"Airport ID":"NWWU","Latitude":null,"Timezone":820,"DST":0,"destinations":[4207]},
{"City":"Uvol","DBTZ":"A","Name":"Uvol Airport","Country":"PG","IATA/FAA":"UVO","Longitude":null,"Airport ID":"AYUZ","Latitude":null,"Timezone":397,"DST":9,"destinations":[1710,1486,5033]},
{"City":null,"DBTZ":"D","Name":"Piedras Negras International Airport","Country":"MX","IATA/FAA":"PDS","Longitude":null,"Airport ID":"MMPG","Latitude":null,"Timezone":306,"DST":10,"destinations":[6244,7427,3203]},
{"City":"Bunju Island","DBTZ":"E","Name":"Bunyu Airport","Country":"ID","IATA/FAA":"BYQ","Longitude":null,"Airport ID":"WALV","Latitude":null,"Timezone":24,"DST":-2,"destinations":[6105,2775]},
{"City":"Kampala","DBTZ":"D","Name":"Kololo Airstrip","Country":"UG","IATA/FAA":"KLA","Longitude":null,"Airport ID":"HUKC","Latitude":null,"Timezone":383,"DST":1,"destinations":[2931,4767,8625]},
{"City":"Zacatecas","DBTZ":"E","Name":"General Leobardo C. Ruiz International Airport","Country":"MX","IATA/FAA":"ZCL","Longitude":null,"Airport ID":"MMZC","Latitude":null,"Timezone":331,"DST":0,"destinations":[5347]},
{"City":"Namatanai","DBTZ":"A","Name":"Namatanai Airport","Country":"PG","IATA/FAA":"ATN","Longitude":null,"Airport ID":"AYNX","Latitude":null,"Timezone":414,"DST":-8,"destinations":[4409,2219,9688]},
{"City":"Kitchener","DBTZ":"A","Name":"Waterloo Airport","Country":"CA","IATA/FAA":"YKF","Longitude":null,"Airport ID":"CYKF","Latitude":null,"Timezone":483,"DST":-3,"destinations":[525,5637]},
{"City":"Greenville","DBTZ":"A","Name":"Donaldson Field Airport","Country":"US","IATA/FAA":"GDC","Longitude":null,"Airport ID":"KGYH","Latitude":null,"Timezone":497,"DST":7,"destinations":[8677]},
{"City":"Pama","DBTZ":"D","Name":"Pama Airport","Country":"BF","IATA/FAA":"XPA","Longitude":null,"Airport ID":"DFEP","Latitude":null,"Timezone":814,"DST":-8,"destinations":[8540,565,7784]},
{"City":"Miramar","DBTZ":"B","Name":"Miramar Airport","Country":"AR","IATA/FAA":"MJR","Longitude":null,"Airport ID":"SAEM","Latitude":null,"Timezone":938,"DST":-5,"destinations":[7415]},
{"City":"Valletta","DBTZ":"A","Name":"Malta International Airport","Country":"MT","IATA/FAA":"MLA","Longitude":null,"Airport ID":"LMML","Latitude":null,"Timezone":937,"DST":9,"destinations":[759,9996]},
{"City":"Yeovil","DBTZ":"E","Name":"RNAS Yeovilton","Country":"GB","IATA/FAA":"YEO","Longitude":null,"Airport ID":"EGDY","Latitude":null,"Timezone":603,"DST":-11,"destinations":[6316,9516,1328]},
{"City":"Sioux Falls","DBTZ":"B","Name":"Joe Foss Field Airport","Country":"US","IATA/FAA":"FSD","Longitude":null,"Airport ID":"KFSD","Latitude":null,"Timezone":501,"DST":-3,"destinations":[5869]},
{"City":"Collins Bay","DBTZ":"B","Name":"Collins Bay Airport","Country":"CA","IATA/FAA":"YKC","Longitude":null,"Airport ID":"CYKC","Latitude":null,"Timezone":587,"DST":-4,"destinations":[8388,8878]},
{"City":null,"DBTZ":"E","Name":"Finley Airport","Country":"AU","IATA/FAA":"FLY","Longitude":null,"Airport ID":"YFIL","Latitude":null,"Timezone":842,"DST":-9,"destinations":[2647,9024]},
{"City":"Ketapang-Borneo Island","DBTZ":"E","Name":"Ketapang(Rahadi Usman) Airport","Country":"ID","IATA/FAA":"KTG","Longitude":null,"Airport ID":"WIOK","Latitude":null,"Timezone":247,"DST":2,"destinations":[621,7313,2127]},
{"City":"Scampton","DBTZ":"B","Name":"RAF Scampton","Country":"GB","IATA/FAA":"SQZ","Longitude":null,"Airport ID":"EGXP","Latitude":null,"Timezone":166,"DST":1,"destinations":[7613,1391]},
{"City":"Bedford","DBTZ":"A","Name":"Laurence G Hanscom Field","Country":"US","IATA/FAA":"BED","Longitude":null,"Airport ID":"KBED","Latitude":null,"Timezone":404,"DST":-5,"destinations":[6645]},
{"City":"Hong Kong","DBTZ":"E","Name":"Hong Kong International Airport","Country":"HK","IATA/FAA":"HKG","Longitude":null,"Airport ID":"VHHH","Latitude":null,"Timezone":734,"DST":12,"destinations":[8097,1094,6479]},
{"City":"Yogyakarta-Java Island","DBTZ":"D","Name":"Adi Sutjipto International Airport","Country":"ID","IATA/FAA":"JOG","Longitude":null,"Airport ID":"WARJ","Latitude":null,"Timezone":235,"DST":-9,"destinations":[8820]},
{"City":"Cimitarra","DBTZ":"B","Name":"Cimitarra Airport","Country":"CO","IATA/FAA":"CIM","Longitude":null,"Airport ID":"SKCM","Latitude":null,"Timezone":692,"DST":-3,"destinations":[4713]},
{"City":"Watertown","DBTZ":"C","Name":"Watertown International Airport","Country":"US","IATA/FAA":"ART","Longitude":null,"Airport ID":"KART","Latitude":null,"Timezone":867,"DST":-4,"destinations":[6966]},
{"City":"Big Trout Lake","DBTZ":"D","Name":"Big Trout Lake Airport","Country":"CA","IATA/FAA":"YTL","Longitude":null,"Airport ID":"CYTL","Latitude":null,"Timezone":174,"DST":-6,"destinations":[4164,5601,276]},
{"City":"Asosa","DBTZ":"C","Name":"Asosa Airport","Country":"ET","IATA/FAA":"ASO","Longitude":null,"Airport ID":"HASO","Latitude":null,"Timezone":861,"DST":-11,"destinations":[7687,6233]},
{"City":"Campbellpore","DBTZ":"E","Name":"Campbellpore Airport","Country":"PK","IATA/FAA":"CWP","Longitude":null,"Airport ID":null,"Latitude":null,"Timezone":256,"DST":-2,"destinations":[2895]},
{"City":"Bellaire","DBTZ":"D","Name":"Antrim County Airport","Country":"US","IATA/FAA":"ACB","Longitude":null,"Airport ID":"KACB","Latitude":null,"Timezone":17,"DST":1,"destinations":[240,6693,5918]},
{"City":"Prospect Creek","DBTZ":"C","Name":"Prospect Creek Airport","Country":"US","IATA/FAA":"PPC","Longitude":null,"Airport ID":"PAPR","Latitude":null,"Timezone":437,"DST":10,"destinations":[7197,6232,3221]},
{"City":"Tanjung Balai-Karinmunbesar Island","DBTZ":"C","Name":"Sei Bati Airport","Country":"ID","IATA/FAA":"TJB","Longitude":null,"Airport ID":"WIBT","Latitude":null,"Timezone":351,"DST":-1,"destinations":[6711,6774,7180]},
{"City":"Krasnoyarsk","DBTZ":"A","Name":"Yemelyanovo Airport","Country":"RU","IATA/FAA":"KJA","Longitude":null,"Airport ID":"UNKL","Latitude":null,"Timezone":317,"DST":-5,"destinations":[3350]},
{"City":"Kokonau-Papua Island","DBTZ":"B","Name":"Kokonau Airport","Country":"ID","IATA/FAA":"KOX","Longitude":null,"Airport ID":"WABN","Latitude":null,"Timezone":259,"DST":-9,"destinations":[6368,1688]},
{"City":"Telida","DBTZ":"E","Name":"Telida Airport","Country":"US","IATA/FAA":"TLF","Longitude":null,"Airport ID":"2K5","Latitude":null,"Timezone":904,"DST":9,"destinations":[4015,5645,2253]},
{"City":"Ashgabat","DBTZ":"E","Name":"Ashgabat International Airport","Country":"TM","IATA/FAA":"ASB","Longitude":null,"Airport ID":"UTAA","Latitude":null,"Timezone":179,"DST":7,"destinations":[2767]},
{"City":"Jambi-Sumatra Island","DBTZ":"A","Name":"Sultan Thaha Airport","Country":"ID","IATA/FAA":"DJB","Longitude":null,"Airport ID":"WIPA","Latitude":null,"Timezone":388,"DST":-7,"destinations":[967,6552]},
{"City":"Yes Bay","DBTZ":"C","Name":"Yes Bay Lodge Seaplane Base","Country":"US","IATA/FAA":"WYB","Longitude":null,"Airport ID":"78K","Latitude":null,"Timezone":624,"DST":5,"destinations":[1735]},
{"City":"Durgapur","DBTZ":"B","Name":"Kazi Nazrul Islam Airport","Country":"IN","IATA/FAA":"RDP","Longitude":null,"Airport ID":"VEDG","Latitude":null,"Timezone":312,"DST":-5,"destinations":[2515,6279]},
{"City":"Anaco","DBTZ":"B","Name":"Anaco Airport","Country":"VE","IATA/FAA":"AAO","Longitude":null,"Airport ID":"SVAN","Latitude":null,"Timezone":492,"DST":8,"destinations":[6727,8391,5002]},
{"City":"Curitiba","DBTZ":"E","Name":"Bacacheri Airport","Country":"BR","IATA/FAA":"BFH","Longitude":null,"Airport ID":"SBBI","Latitude":null,"Timezone":360,"DST":-10,"destinations":[5246,8669]},
{"City":"Van Horn","DBTZ":"D","Name":"Culberson County Airport","Country":"US","IATA/FAA":"VHN","Longitude":null,"Airport ID":"KVHN","Latitude":null,"Timezone":426,"DST":-9,"destinations":[2208]},
{"City":"Mouyondzi","DBTZ":"E","Name":"Mouyondzi Airport","Country":"CG","IATA/FAA":"MUY","Longitude":null,"Airport ID":"FCBM","Latitude":null,"Timezone":196,"DST":-6,"destinations":[8126,2709]},
{"City":"Jutigalpa","DBTZ":"B","Name":"Jutigalpa airport","Country":"HN","IATA/FAA":"JUT","Longitude":null,"Airport ID":"MHJU","Latitude":null,"Timezone":173,"DST":0,"destinations":[3183,9340]},
{"City":"Bazaruto Island","DBTZ":"D","Name":"Indigo Bay Lodge Airport","Country":"MZ","IATA/FAA":"IBL","Longitude":null,"Airport ID":null,"Latitude":null,"Timezone":412,"DST":-10,"destinations":[5381,1649]},
{"City":"Reynosa","DBTZ":"E","Name":"General Lucio Blanco International Airport","Country":"MX","IATA/FAA":"REX","Longitude":null,"Airport ID":"MMRX","Latitude":null,"Timezone":423,"DST":11,"destinations":[8072]},
{"City":"Wiscasset","DBTZ":"D","Name":"Wiscasset Airport","Country":"US","IATA/FAA":"ISS","Longitude":null,"Airport ID":"KIWI","Latitude":null,"Timezone":195,"DST":11,"destinations":[7630,5648]},
{"City":"Pasirkuning-Singkep Island","DBTZ":"A","Name":"Dabo Airport","Country":"ID","IATA/FAA":"SIQ","Longitude":null,"Airport ID":"WIDS","Latitude":null,"Timezone":763,"DST":10,"destinations":[2137,2886]},
{"City":"Nanjing","DBTZ":"A","Name":"Nanjing Lukou Airport","Country":"CN","IATA/FAA":"NKG","Longitude":null,"Airport ID":"ZSNJ","Latitude":null,"Timezone":314,"DST":-12,"destinations":[9201,7887,7223]},
{"City":"Hazleton","DBTZ":"D","Name":"Hazleton Municipal Airport","Country":"US","IATA/FAA":"HZL","Longitude":null,"Airport ID":"KHZL","Latitude":null,"Timezone":639,"DST":3,"destinations":[4734,3792,3398]},
{"City":"Big Spring","DBTZ":"D","Name":"Big Spring Mc Mahon-Wrinkle Airport","Country":"US","IATA/FAA":"HCA","Longitude":null,"Airport ID":"KBPG","Latitude":null,"Timezone":372,"DST":5,"destinations":[7965,5534,6067]},
{"City":"Grand Marais","DBTZ":"A","Name":"Grand Marais Cook County Airport","Country":"US","IATA/FAA":"GRM","Longitude":null,"Airport ID":"KCKC","Latitude":null,"Timezone":682,"DST":-3,"destinations":[2328]},
{"City":"Itacoatiara","DBTZ":"D","Name":"Itacoatiara Airport","Country":"BR","IATA/FAA":"ITA","Longitude":null,"Airport ID":"SBIC","Latitude":null,"Timezone":808,"DST":0,"destinations":[7696,8717,5180]},
{"City":"Bayreuth","DBTZ":"C","Name":"Bayreuth Airport","Country":"DE","IATA/FAA":"BYU","Longitude":null,"Airport ID":"EDQD","Latitude":null,"Timezone":76,"DST":6,"destinations":[7660,6413]},
{"City":"Johannesburg","DBTZ":"A","Name":"Lanseria Airport","Country":"ZA","IATA/FAA":"HLA","Longitude":null,"Airport ID":"FALA","Latitude":null,"Timezone":89,"DST":10,"destinations":[920]},
{"City":"Williams Harbour","DBTZ":"E","Name":"Williams Harbour Airport","Country":"CA","IATA/FAA":"YWM","Longitude":null,"Airport ID":"CCA6","Latitude":null,"Timezone":250,"DST":-5,"destinations":[232,950,6277]},
{"City":"Chapleau","DBTZ":"C","Name":"Chapleau Airport","Country":"CA","IATA/FAA":"YLD","Longitude":null,"Airport ID":"CYLD","Latitude":null,"Timezone":750,"DST":-8,"destinations":[2040]},
{"City":"Arawa","DBTZ":"C","Name":"Arawa Airport","Country":"PG","IATA/FAA":"RAW","Longitude":null,"Airport ID":null,"Latitude":null,"Timezone":950,"DST":-7,"destinations":[9651,3801,3941]},
{"City":"Veranópolis","DBTZ":"E","Name":"Veranópolis Airport","Country":"BR","IATA/FAA":"0","Longitude":null,"Airport ID":"SSVN","Latitude":null,"Timezone":1000,"DST":-2,"destinations":[8369,8527]},
{"City":"Muscatine","DBTZ":"D","Name":"Muscatine Municipal Airport","Country":"US","IATA/FAA":"MUT","Longitude":null,"Airport ID":"KMUT","Latitude":null,"Timezone":67,"DST":8,"destinations":[4732,6348,5534]},
{"City":"Garuahi","DBTZ":"B","Name":"Garuahi Airport","Country":"PG","IATA/FAA":"GRH","Longitude":null,"Airport ID":null,"Latitude":null,"Timezone":585,"DST":-3,"destinations":[4599]},
{"City":null,"DBTZ":"C","Name":"Kitee Airport","Country":"FI","IATA/FAA":"KTQ","Longitude":null,"Airport ID":"EFIT","Latitude":null,"Timezone":671,"DST":11,"destinations":[5820]},
{"City":"Lençóis","DBTZ":"A","Name":"Coronel Horácio de Mattos Airport","Country":"BR","IATA/FAA":"LEC","Longitude":null,"Airport ID":"SBLE","Latitude":null,"Timezone":274,"DST":10,"destinations":[9358,9912,1520]},
{"City":"Parkersburg","DBTZ":"A","Name":"Mid Ohio Valley Regional Airport","Country":"US","IATA/FAA":"PKB","Longitude":null,"Airport ID":"KPKB","Latitude":null,"Timezone":528,"DST":8,"destinations":[7718]},
{"City":"Buritirama","DBTZ":"D","Name":"Buritirama Airport","Country":"BR","IATA/FAA":"0","Longitude":null,"Airport ID":"SNTQ","Latitude":null,"Timezone":137,"DST":-12,"destinations":[1009,304]}]